[[{"html_attributions":[],"next_page_token":"AXCi2Q6BPtezO7fA_hKoVzgvGgdt8K51g5L3oXZYxO9hb3e3YZQHEk0XB8C9lTay_O7J5JYfXqntPchlyzxCx-FOp5bPIUVmJiGYc4HFw7O5rwRQ9FDU9HIs9uA_GXLkPus9G-6LFWou80yHXc1RrOdwnFHCY4UT-lmcx9RmL1-IxToOAajgjb_PvhfnEd4OFBqhTSdSAMvNWy5seIAqjBi-tsxv0FT1m2rWeQkeQGGpS4567C9aVDhXr-I1s-z3eG7--eOsj95u-pJCqGJNk-vPz6Wgp6_bXjeSz10utK8HMzwu4w_Ub6vJbIZpKA7MhgQCbHHxoqZ2iDtnBKUWH9Nl6XCjDppZWvKiGh3u9Er3QphKFEuXl1RRr0mfJT4S3utknavXlASllOSk1sEUGlUU3XTl3nPAYoNrqmWujgxE8wk3JPZJ_qNyqdLmWi44nSw","results":[{"business_status":"OPERATIONAL","geometry":{"location":{"lat":32.0481264,"lng":34.7588792},"viewport":{"northeast":{"lat":32.04963747989272,"lng":34.76009067989272},"southwest":{"lat":32.04693782010727,"lng":34.75739102010728}}},"icon":"https://maps.gstatic.com/mapfiles/place_api/icons/v1/png_71/cafe-71.png","icon_background_color":"#FF9E67","icon_mask_base_uri":"https://maps.gstatic.com/mapfiles/place_api/icons/v2/cafe_pinlet","name":"Double Espresso","opening_hours":{"open_now":true},"photos":[{"height":3000,"html_attributions":["<a href=\"https://maps.google.com/maps/contrib/112639911253201236765\">תומר</a>"],"photo_reference":"AXCi2Q4g5H1CvKotLF5AOebukyMqsxM5584BAk2h2Fi17fiYjlXoGIyLMeO6KiOhDRCQcwcUcco_v97tcEqrvbrxfWZxtwDTeNgNPmKyWJgDwAGHc2yhHgWMQPPw8HScN08AqQAtwEoJKqE3KO0GtinPHKvL-Uep2eW-UiuVnAxH506JZP-i","width":4000}],"place_id":"ChIJyS4HPrpMHRURM8sZbasJjpg","plus_code":{"compound_code":"2QX5+7H Tel Aviv-Yafo","global_code":"8G4P2QX5+7H"},"price_level":2,"rating":4.4,"reference":"ChIJyS4HPrpMHRURM8sZbasJjpg","scope":"GOOGLE","types":["cafe","store","restaurant","food","point_of_interest","establishment"],"user_ratings_total":591,"vicinity":"Jerusalem Blvd 77, Tel Aviv-Yafo"},{"business_status":"OPERATIONAL","geometry":{"location":{"lat":32.0771645,"lng":34.7742624},"viewport":{"northeast":{"lat":32.07852662989273,"lng":34.77568307989272},"southwest":{"lat":32.07582697010729,"lng":34.77298342010727}}},"icon":"https://maps.gstatic.com/mapfiles/place_api/icons/v1/png_71/restaurant-71.png","icon_background_color":"#FF9E67","icon_mask_base_uri":"https://maps.gstatic.com/mapfiles/place_api/icons/v2/restaurant_pinlet","name":"Café CUCU","opening_hours":{"open_now":true},"photos":[{"height":3840,"html_attributions":["<a href=\"https://maps.google.com/maps/contrib/114637993748585729429\">A Google User</a>"],"photo_reference":"AXCi2Q4VRKuIOi0B-83DR_lsnK9pwWyUPO0ueF3jDsR_sjqvq3B20XTaN7SksjS5Gd8TQMeUhsSQjFPpg0VeTWRzaQWtT2IKvE-3uEE1E4AUKvX53f5jMFcDZiFpWiEgToWQKOUNAyguhoXbh43zHHb-zDZ3lAt8xLHl6uXAO8Cl6DQyhpDH","width":5760}],"place_id":"ChIJP893XvFLHRUR1lsDiXEb3y8","plus_code":{"compound_code":"3QGF+VP Tel Aviv-Yafo","global_code":"8G4P3QGF+VP"},"price_level":3,"rating":4.6,"reference":"ChIJP893XvFLHRUR1lsDiXEb3y8","scope":"GOOGLE","types":["restaurant","cafe","food","point_of_interest","establishment"],"user_ratings_total":1643,"vicinity":"Dizengoff St 83, Tel Aviv-Yafo"},{"business_status":"OPERATIONAL","geometry":{"location":{"lat":32.0689892,"lng":34.768695},"viewport":{"northeast":{"lat":32.07037397989271,"lng":34.76999302989272},"southwest":{"lat":32.06767432010727,"lng":34.76729337010727}}},"icon":"https://maps.gstatic.com/mapfiles/place_api/icons/v1/png_71/cafe-71.png","icon_background_color":"#FF9E67","icon_mask_base_uri":"https://maps.gstatic.com/mapfiles/place_api/icons/v2/cafe_pinlet","name":"Café Yom Tov","opening_hours":{"open_now":true},"photos":[{"height":4048,"html_attributions":["<a href=\"https://maps.google.com/maps/contrib/116850311111067490783\">Yoav Gal</a>"],"photo_reference":"AXCi2Q67vthHDh0NZ5BnbPDq3gztzwC_c432VZ5siIMs8XjK8YTmz0UNanExpdlUicY8FoI4txXrMZRqsYe38pGPeXwdirASFk1bTCbhKdCyuNyWtDUsFos_Alug2kGI7VGg6pBmiwlWvJiZpNSWmGbvKbGcu4cfnEkSGC4EoD0A8iW5Lu2y","width":3036}],"place_id":"ChIJ9RXn9YNMHRUR_yNpq7qaNnk","plus_code":{"compound_code":"3Q99+HF Tel Aviv-Yafo","global_code":"8G4P3Q99+HF"},"price_level":2,"rating":4.5,"reference":"ChIJ9RXn9YNMHRUR_yNpq7qaNnk","scope":"GOOGLE","types":["cafe","food","point_of_interest","establishment"],"user_ratings_total":1716,"vicinity":"Yom Tov St 30, Tel Aviv-Yafo"},{"business_status":"OPERATIONAL","geometry":{"location":{"lat":32.0583732,"lng":34.8189073},"viewport":{"northeast":{"lat":32.05973787989272,"lng":34.82024702989271},"southwest":{"lat":32.05703822010727,"lng":34.81754737010726}}},"icon":"https://maps.gstatic.com/mapfiles/place_api/icons/v1/png_71/cafe-71.png","icon_background_color":"#FF9E67","icon_mask_base_uri":"https://maps.gstatic.com/mapfiles/place_api/icons/v2/cafe_pinlet","name":"Shaked Café","opening_hours":{"open_now":true},"photos":[{"height":3024,"html_attributions":["<a href=\"https://maps.google.com/maps/contrib/117333494422740279047\">שי רחמני</a>"],"photo_reference":"AXCi2Q6z9iIWwxbtTg_u7AA9E3uzUqopb6g-OzYRiKOjF8a2VuVlQEkTcj5spRY19naukaYtGmXSy4SnwrTrnUVfOOUvbxQT-NBVqLW-46LdnHwSQfmZ3p0mFLNEuQ59Z_KEHH6Kk00AntT4iBXT7G80onnCd-cVZAFJGke13x0_lEF4j5h2","width":4032}],"place_id":"ChIJA2zO5v9KHRURXMgVh6DoSq0","plus_code":{"compound_code":"3R59+8H Ramat Gan","global_code":"8G4P3R59+8H"},"price_level":2,"rating":4.1,"reference":"ChIJA2zO5v9KHRURXMgVh6DoSq0","scope":"GOOGLE","types":["cafe","store","food","point_of_interest","establishment"],"user_ratings_total":2154,"vicinity":"Aluf David St 40, Ramat Gan"},{"business_status":"OPERATIONAL","geometry":{"location":{"lat":32.0857237,"lng":34.7747447},"viewport":{"northeast":{"lat":32.08708242989272,"lng":34.77604637989273},"southwest":{"lat":32.08438277010728,"lng":34.77334672010728}}},"icon":"https://maps.gstatic.com/mapfiles/place_api/icons/v1/png_71/cafe-71.png","icon_background_color":"#FF9E67","icon_mask_base_uri":"https://maps.gstatic.com/mapfiles/place_api/icons/v2/cafe_pinlet","name":"Dizengoff Cafe","opening_hours":{"open_now":true},"photos":[{"height":3024,"html_attributions":["<a href=\"https://maps.google.com/maps/contrib/106185810895557288085\">A Google User</a>"],"photo_reference":"AXCi2Q7DF0I8DffaKqdjmRCS3am_HQENRulSRDrwxzqWeS-qbBSdLLXHsbGQgb_iIi8Vzv69eFzXavEsnhjNC5a5wxZttH_RNjhWXSjXTd5x_qyxAAJKgo8mKTZzosQgIvJTH-jZlvdLMQ45IdSFAPh8LipnBdO111X7bOw0OMl2JBDkkyNM","width":4032}],"place_id":"ChIJm4T00olLHRURMIXHaAjtS34","plus_code":{"compound_code":"3QPF+7V Tel Aviv-Yafo","global_code":"8G4P3QPF+7V"},"price_level":2,"rating":4.3,"reference":"ChIJm4T00olLHRURMIXHaAjtS34","scope":"GOOGLE","types":["cafe","restaurant","food","point_of_interest","establishment"],"user_ratings_total":2279,"vicinity":"Dizengoff St 190, Tel Aviv-Yafo"},{"business_status":"OPERATIONAL","geometry":{"location":{"lat":32.0937248,"lng":34.7851271},"viewport":{"northeast":{"lat":32.09514372989271,"lng":34.78648507989272},"southwest":{"lat":32.09244407010727,"lng":34.78378542010728}}},"icon":"https://maps.gstatic.com/mapfiles/place_api/icons/v1/png_71/cafe-71.png","icon_background_color":"#FF9E67","icon_mask_base_uri":"https://maps.gstatic.com/mapfiles/place_api/icons/v2/cafe_pinlet","name":"Cafe Zorik","opening_hours":{"open_now":true},"photos":[{"height":2250,"html_attributions":["<a href=\"https://maps.google.com/maps/contrib/105048251549220598672\">Bernhard van Moll</a>"],"photo_reference":"AXCi2Q4HeDD7Xr8xf9CqL4sUnFvoYl9WWkwkRMRj59h-CvAexxHEUoG0m-yKidCWEZsDZyfFKhWTToJ5RLFBKzvWa2gsy4At8k5OGQintZe0CYoqvytnbx-COgpq_QJ022i1LGwRWXNdXndzSOSWRuooiwEFLOo_bccP3TOTF2Ei3oEXS8C5","width":4000}],"place_id":"ChIJGagCnO5LHRURqXNcVN8plNs","plus_code":{"compound_code":"3QVP+F3 Tel Aviv-Yafo","global_code":"8G4P3QVP+F3"},"price_level":2,"rating":4.3,"reference":"ChIJGagCnO5LHRURqXNcVN8plNs","scope":"GOOGLE","types":["cafe","restaurant","food","point_of_interest","establishment"],"user_ratings_total":3475,"vicinity":"Yehuda HaMakkabbi St 4א, Tel Aviv-Yafo"},{"business_status":"OPERATIONAL","geometry":{"location":{"lat":32.052641,"lng":34.756142},"viewport":{"northeast":{"lat":32.05387587989272,"lng":34.75755882989272},"southwest":{"lat":32.05117622010727,"lng":34.75485917010727}}},"icon":"https://maps.gstatic.com/mapfiles/place_api/icons/v1/png_71/restaurant-71.png","icon_background_color":"#FF9E67","icon_mask_base_uri":"https://maps.gstatic.com/mapfiles/place_api/icons/v2/restaurant_pinlet","name":"Cafe Puaa","opening_hours":{"open_now":true},"photos":[{"height":4624,"html_attributions":["<a href=\"https://maps.google.com/maps/contrib/100738988382606665421\">דינה מנתי קרן</a>"],"photo_reference":"AXCi2Q5y2H4IjgWtfcrpJK_mVx6QrN4ltyssIVSqADS0prfx9HJ4q9Qrr38z4tfab73xXd9IUwG__GGfZOG3bSufSeRbXERE3tuQrKZZ-bK-uSEZFzbko1lkLeMsw_PgAGoypnAkC6_7RZek-EM7TzPsHjGFI6mQ-lAfG-N_QbBVs8MHqfFt","width":3472}],"place_id":"ChIJOeimRrlMHRURSmuTz3Skpqw","plus_code":{"compound_code":"3Q34+3F Tel Aviv-Yafo","global_code":"8G4P3Q34+3F"},"price_level":2,"rating":4.5,"reference":"ChIJOeimRrlMHRURSmuTz3Skpqw","scope":"GOOGLE","types":["restaurant","cafe","food","point_of_interest","establishment"],"user_ratings_total":5298,"vicinity":"Rabbi Yohanan St 8, Tel Aviv-Yafo"},{"business_status":"OPERATIONAL","geometry":{"location":{"lat":32.0525467,"lng":34.7521621},"viewport":{"northeast":{"lat":32.05392937989271,"lng":34.75353297989272},"southwest":{"lat":32.05122972010727,"lng":34.75083332010728}}},"icon":"https://maps.gstatic.com/mapfiles/place_api/icons/v1/png_71/cafe-71.png","icon_background_color":"#FF9E67","icon_mask_base_uri":"https://maps.gstatic.com/mapfiles/place_api/icons/v2/cafe_pinlet","name":"Fairouz Cafe","opening_hours":{"open_now":true},"photos":[{"height":3024,"html_attributions":["<a href=\"https://maps.google.com/maps/contrib/108668134539426735076\">Alex Idan</a>"],"photo_reference":"AXCi2Q5ThGmynxiMBli7SelqEhCMP47cstVMBfDslGUx07IOjYl9wW41J4UPcqjUMNtWWg226eZ70mb6PZjZwJc1LeIkIs8BRBmuAK1aE_-QPmw4mnPOenb-tqKOg9qaPjdMtISrN_6Kg7CdhPkipcoRombbdjEihY2yjP3nM189BGUzS_zJ","width":4032}],"place_id":"ChIJG1bzfLhMHRURLxGnBo20ho4","plus_code":{"compound_code":"3Q32+2V Tel Aviv-Yafo","global_code":"8G4P3Q32+2V"},"rating":4.4,"reference":"ChIJG1bzfLhMHRURLxGnBo20ho4","scope":"GOOGLE","types":["cafe","bakery","store","restaurant","food","point_of_interest","establishment"],"user_ratings_total":638,"vicinity":"1, Louis Pasteur St 5, Tel Aviv-Yafo"},{"business_status":"OPERATIONAL","geometry":{"location":{"lat":32.1133228,"lng":34.8244674},"viewport":{"northeast":{"lat":32.11467522989273,"lng":34.82578012989272},"southwest":{"lat":32.11197557010728,"lng":34.82308047010728}}},"icon":"https://maps.gstatic.com/mapfiles/place_api/icons/v1/png_71/cafe-71.png","icon_background_color":"#FF9E67","icon_mask_base_uri":"https://maps.gstatic.com/mapfiles/place_api/icons/v2/cafe_pinlet","name":"Café Zorik","opening_hours":{"open_now":true},"photos":[{"height":4000,"html_attributions":["<a href=\"https://maps.google.com/maps/contrib/103686368620424466880\">sara lichi</a>"],"photo_reference":"AXCi2Q4P4M-yO0gH01HOsBHjICeY9chLgnKHD4P8gA_3y5R2imM65kgrL1AGskWtVe3ETbhBeEeF-N7GwX5eYIJW4vzHxSVcNKfj7z4tUe7G4vY5GKs5uBE-XcVKJc6gL00fR_wiwgv1gBdIi_rIsGFehjei8FOI9Gt-45tRe0dnUYeFGEYx","width":3000}],"place_id":"ChIJ5wn4tdlJHRUR8yiIlcZ2frA","plus_code":{"compound_code":"4R7F+8R Tel Aviv-Yafo","global_code":"8G4P4R7F+8R"},"price_level":2,"rating":4.3,"reference":"ChIJ5wn4tdlJHRUR8yiIlcZ2frA","scope":"GOOGLE","types":["cafe","store","food","point_of_interest","establishment"],"user_ratings_total":1489,"vicinity":"Kehilat Saloniki St 11, Tel Aviv-Yafo"},{"business_status":"OPERATIONAL","geometry":{"location":{"lat":32.0085654,"lng":34.7816856},"viewport":{"northeast":{"lat":32.00993987989272,"lng":34.78342737989272},"southwest":{"lat":32.00724022010728,"lng":34.78072772010728}}},"icon":"https://maps.gstatic.com/mapfiles/place_api/icons/v1/png_71/cafe-71.png","icon_background_color":"#FF9E67","icon_mask_base_uri":"https://maps.gstatic.com/mapfiles/place_api/icons/v2/cafe_pinlet","name":"Cafe Gan Sipur","opening_hours":{"open_now":true},"photos":[{"height":4032,"html_attributions":["<a href=\"https://maps.google.com/maps/contrib/107835876040089838843\">אור ירושלמי</a>"],"photo_reference":"AXCi2Q6GrQsFr_i1_cd3SfIyEB0DPXV2E8naUDbmZT6rJGOmqrX0TuSZGlUesy2PDROcJQ06MHwVtD96JR7JbRkyRNKdArtl-UQesHC4MfmW4Lbatf03lq2lJVQWRyizTb0ksrV9qz3AZkodg45Pxdsiy61gq2pNGr9e8hh7KNT9qJameu-d","width":3024}],"place_id":"ChIJVV7RApm0AhURJCh-6vKview","plus_code":{"compound_code":"2Q5J+CM Holon","global_code":"8G4P2Q5J+CM"},"price_level":2,"rating":4.4,"reference":"ChIJVV7RApm0AhURJCh-6vKview","scope":"GOOGLE","types":["cafe","restaurant","food","point_of_interest","establishment"],"user_ratings_total":5491,"vicinity":"Mota Gur St 15, Holon"},{"business_status":"OPERATIONAL","geometry":{"location":{"lat":32.0130495,"lng":34.7780354},"viewport":{"northeast":{"lat":32.01475702989271,"lng":34.77920177989272},"southwest":{"lat":32.01205737010727,"lng":34.77650212010727}}},"icon":"https://maps.gstatic.com/mapfiles/place_api/icons/v1/png_71/restaurant-71.png","icon_background_color":"#FF9E67","icon_mask_base_uri":"https://maps.gstatic.com/mapfiles/place_api/icons/v2/restaurant_pinlet","name":"Cafe LaLush","opening_hours":{"open_now":true},"photos":[{"height":3024,"html_attributions":["<a href=\"https://maps.google.com/maps/contrib/111128077723441388731\">Brian Ireley</a>"],"photo_reference":"AXCi2Q5CXuUotIRN2YQvg4mjf-i9sMtf23Dbyd0rUuJsLCYkMXQoNMLlbGsgQnJwvB3QteSazfSUy6iNlCkBWs8KxRMw5YabBDqNYxxgYmqrvtQDkFXU3C9I7umhtXKu-Vv1Johurkd45MsNj0zKGrgQFHp0E9U6H-vN2lhqNb7DxF1v8256","width":4032}],"place_id":"ChIJl1IfJlm1AhURHShbLx0o8wc","plus_code":{"compound_code":"2Q7H+66 Holon","global_code":"8G4P2Q7H+66"},"price_level":2,"rating":4.2,"reference":"ChIJl1IfJlm1AhURHShbLx0o8wc","scope":"GOOGLE","types":["restaurant","cafe","food","point_of_interest","establishment"],"user_ratings_total":1903,"vicinity":"Tzvi Tadmor 12, Holon"},{"business_status":"OPERATIONAL","geometry":{"location":{"lat":32.0719608,"lng":34.7737862},"viewport":{"northeast":{"lat":32.07335267989273,"lng":34.77515867989272},"southwest":{"lat":32.07065302010729,"lng":34.77245902010727}}},"icon":"https://maps.gstatic.com/mapfiles/place_api/icons/v1/png_71/cafe-71.png","icon_background_color":"#FF9E67","icon_mask_base_uri":"https://maps.gstatic.com/mapfiles/place_api/icons/v2/cafe_pinlet","name":"Just Coffee coffee","photos":[{"height":2448,"html_attributions":["<a href=\"https://maps.google.com/maps/contrib/112141645322189380619\">פשוט קפה coffee</a>"],"photo_reference":"AXCi2Q6iLrguohnS75F6WY2i5UsPFR5YboP1oDzCWszm4Uljp3KjWxjHDQWn-t6NoDARG5YHvcyVdyRSMapdnduPLiUgLK_46jANGYYgha8vldxDFv1r_pm99hjaeXpcP112lKwCRUi0uyWBQXSPR5GX-ApAxJdLFAh_0sN983cxaBuWm3MM","width":3264}],"place_id":"ChIJMShsIYBMHRURWNuvCfqcqmk","plus_code":{"compound_code":"3QCF+QG Tel Aviv-Yafo","global_code":"8G4P3QCF+QG"},"rating":4.9,"reference":"ChIJMShsIYBMHRURWNuvCfqcqmk","scope":"GOOGLE","types":["cafe","liquor_store","bakery","store","food","point_of_interest","establishment"],"user_ratings_total":12,"vicinity":"King George 26, HaHashmonaim St 2, Tel Aviv-Yafo"},{"business_status":"OPERATIONAL","geometry":{"location":{"lat":32.0611856,"lng":34.7757178},"viewport":{"northeast":{"lat":32.06258542989271,"lng":34.77704987989272},"southwest":{"lat":32.05988577010727,"lng":34.77435022010727}}},"icon":"https://maps.gstatic.com/mapfiles/place_api/icons/v1/png_71/cafe-71.png","icon_background_color":"#FF9E67","icon_mask_base_uri":"https://maps.gstatic.com/mapfiles/place_api/icons/v2/cafe_pinlet","name":"קפה החשמל","opening_hours":{"open_now":true},"photos":[{"height":3120,"html_attributions":["<a href=\"https://maps.google.com/maps/contrib/114355028903310522754\">Eyal Teutsch</a>"],"photo_reference":"AXCi2Q6EJbhPCywbzlzSroc2oQrDJ5MZTbGjDWEzGjuC1syFwYu41BGH38F4rUZg1p7TCbssPnyQ5QTI6f237mUkXAU_PDZnTNKqDW6kkTeWPBzv0z3Lr8mya7-b97OhqNYSkmhAOwtDd5QwMwBKLdULN2tOMgo-qbVk7924Wk5b9JC6PxZh","width":4160}],"place_id":"ChIJdQhU6WJLHRURlLwYEFYdT3s","plus_code":{"compound_code":"3Q6G+F7 Tel Aviv-Yafo","global_code":"8G4P3Q6G+F7"},"price_level":2,"rating":4.6,"reference":"ChIJdQhU6WJLHRURlLwYEFYdT3s","scope":"GOOGLE","types":["cafe","food","point_of_interest","establishment"],"user_ratings_total":319,"vicinity":"HaHashmal St 12, Tel Aviv-Yafo"},{"business_status":"OPERATIONAL","geometry":{"location":{"lat":32.0828764,"lng":34.7814952},"viewport":{"northeast":{"lat":32.08422737989272,"lng":34.78278402989272},"southwest":{"lat":32.08152772010727,"lng":34.78008437010728}}},"icon":"https://maps.gstatic.com/mapfiles/place_api/icons/v1/png_71/cafe-71.png","icon_background_color":"#FF9E67","icon_mask_base_uri":"https://maps.gstatic.com/mapfiles/place_api/icons/v2/cafe_pinlet","name":"Coffee & bakery","photos":[{"height":4000,"html_attributions":["<a href=\"https://maps.google.com/maps/contrib/106947531084432850194\">יוסי בכר</a>"],"photo_reference":"AXCi2Q6QR-JqM2MHu_9VQ5gBuNOTZ8YcGkwx2UQ_uNbhEmGUHbcc8LYS_qlKlNvXkq_rrQTN9nBHM3aZ6yqMwsIrsEFBE1loOR5jRiiO1WjpFcLKb27UMD-ZrhFFqUxkPS9a2PHuyEX_vgaY7N541rptRMU5lZi3cyv-sVR9WUVmV-s8pbI","width":1800}],"place_id":"ChIJl2KG7CVLHRUROU_rrB0mf7E","plus_code":{"compound_code":"3QMJ+5H Tel Aviv-Yafo","global_code":"8G4P3QMJ+5H"},"rating":3.4,"reference":"ChIJl2KG7CVLHRUROU_rrB0mf7E","scope":"GOOGLE","types":["cafe","store","food","point_of_interest","establishment"],"user_ratings_total":15,"vicinity":"Shlomo Ibn Gabirol St 92, Tel Aviv-Yafo"},{"business_status":"OPERATIONAL","geometry":{"location":{"lat":32.0773207,"lng":34.7815264},"viewport":{"northeast":{"lat":32.07866602989272,"lng":34.78282032989272},"southwest":{"lat":32.07596637010728,"lng":34.78012067010728}}},"icon":"https://maps.gstatic.com/mapfiles/place_api/icons/v1/png_71/cafe-71.png","icon_background_color":"#FF9E67","icon_mask_base_uri":"https://maps.gstatic.com/mapfiles/place_api/icons/v2/cafe_pinlet","name":"קפה שאבלי - בית קפה ובר יין","opening_hours":{"open_now":true},"photos":[{"height":4032,"html_attributions":["<a href=\"https://maps.google.com/maps/contrib/116187220778913470471\">A Google User</a>"],"photo_reference":"AXCi2Q661eDjssjE_yNk1FU6cv6AMgb1-YYeAqHO7C2GpmOxVFrrLIcIrOIkgI2AXLbvY0FefH7SQM1kf6lopZ6ZNoHeNXYbBq9iPogodqij5oniQ5pJ2I-9VaP_-EWbI24V-Zzw0mLT0UkpVli-0qabo7DUlUxfhUFxcWMA0neb48i5d3gr","width":3024}],"place_id":"ChIJiSuN92JLHRUR45j2j8IWDJg","plus_code":{"compound_code":"3QGJ+WJ Tel Aviv-Yafo","global_code":"8G4P3QGJ+WJ"},"rating":4.9,"reference":"ChIJiSuN92JLHRUR45j2j8IWDJg","scope":"GOOGLE","types":["cafe","store","food","point_of_interest","establishment"],"user_ratings_total":35,"vicinity":"Shlomo Ibn Gabirol St 48, Tel Aviv-Yafo"},{"business_status":"OPERATIONAL","geometry":{"location":{"lat":32.0747592,"lng":34.8092923},"viewport":{"northeast":{"lat":32.07607427989272,"lng":34.81062222989273},"southwest":{"lat":32.07337462010728,"lng":34.80792257010728}}},"icon":"https://maps.gstatic.com/mapfiles/place_api/icons/v1/png_71/cafe-71.png","icon_background_color":"#FF9E67","icon_mask_base_uri":"https://maps.gstatic.com/mapfiles/place_api/icons/v2/cafe_pinlet","name":"Cafe Zelik","opening_hours":{"open_now":true},"photos":[{"height":4032,"html_attributions":["<a href=\"https://maps.google.com/maps/contrib/102252839818932731570\">A Google User</a>"],"photo_reference":"AXCi2Q64FXCIzqZRlSxffhrKBEG8drGaG5bm31e30RYwHBzfj0yd_xNNGWU86Npasd5NbA37ZGhOPgnPnkScb1TKkkKfVQtjvizAfgC1qW3qsgeqkS8K3J0s2rR9GmcZSI79S7kQ_inZ-K8mjoFaZgqqKF9Upsksg0Q-VSmw-979MWqXQ67J","width":3024}],"place_id":"ChIJTcKcV7BLHRUR3XYtuwQVXHY","plus_code":{"compound_code":"3RF5+WP Giv'atayim","global_code":"8G4P3RF5+WP"},"price_level":2,"rating":4,"reference":"ChIJTcKcV7BLHRUR3XYtuwQVXHY","scope":"GOOGLE","types":["cafe","store","restaurant","food","point_of_interest","establishment"],"user_ratings_total":3258,"vicinity":"Sheinkin St 3, Giv'atayim"},{"business_status":"OPERATIONAL","geometry":{"location":{"lat":32.0704091,"lng":34.7735561},"viewport":{"northeast":{"lat":32.07174852989272,"lng":34.77494897989272},"southwest":{"lat":32.06904887010727,"lng":34.77224932010728}}},"icon":"https://maps.gstatic.com/mapfiles/place_api/icons/v1/png_71/cafe-71.png","icon_background_color":"#FF9E67","icon_mask_base_uri":"https://maps.gstatic.com/mapfiles/place_api/icons/v2/cafe_pinlet","name":"WayCup Coffee TLV","opening_hours":{"open_now":false},"photos":[{"height":3024,"html_attributions":["<a href=\"https://maps.google.com/maps/contrib/101347695240737471426\">Omri Roth</a>"],"photo_reference":"AXCi2Q4dF8bYSRBDFoFDASKXv0v5268aAIBS4EzJPt3nVq-79EerPOTFtOAmHpT49zCA4TKHVmyA39rbImAi9aY17mtLD8_Wwa_rSAIGqC2Z2Hu2B4mf-VAP5m8QGEds04b2q1vdXvwohz0Y8b1vTgMwT-494zd2CUGIqJS4jM4fYhsVuUHV","width":4032}],"place_id":"ChIJNSOc0IFMHRUR5oIkAzB1CjY","plus_code":{"compound_code":"3QCF+5C Tel Aviv-Yafo","global_code":"8G4P3QCF+5C"},"price_level":2,"rating":4.8,"reference":"ChIJNSOc0IFMHRUR5oIkAzB1CjY","scope":"GOOGLE","types":["cafe","store","food","point_of_interest","establishment"],"user_ratings_total":834,"vicinity":"Yohanan HaSandlar St 23, Tel Aviv-Yafo"},{"business_status":"OPERATIONAL","geometry":{"location":{"lat":32.0494446,"lng":34.757403},"viewport":{"northeast":{"lat":32.05075812989273,"lng":34.75884602989272},"southwest":{"lat":32.04805847010728,"lng":34.75614637010728}}},"icon":"https://maps.gstatic.com/mapfiles/place_api/icons/v1/png_71/cafe-71.png","icon_background_color":"#FF9E67","icon_mask_base_uri":"https://maps.gstatic.com/mapfiles/place_api/icons/v2/cafe_pinlet","name":"Alma Cafe","opening_hours":{"open_now":true},"photos":[{"height":1067,"html_attributions":["<a href=\"https://maps.google.com/maps/contrib/117347513738602514802\">Alma Cafe</a>"],"photo_reference":"AXCi2Q70pqcxuXMWN-ajx5AAiiNvcaHfoFWwe0oJJx8q1kEt2SKEtw6LkYU6RzZnRVt42wbVYby74nWtItvgrGs8liVdww0GjkiKC3NG7LvOxYk2bydeyKJRxdy15XBqlNDd0VtG_NGzmtl-KfwRAf159UqQA1H1klwhwdkSEAqEGJqEogLf","width":1600}],"place_id":"ChIJnzcQH7pMHRURUttBI0MY0Ww","plus_code":{"compound_code":"2QX4+QX Tel Aviv-Yafo","global_code":"8G4P2QX4+QX"},"price_level":2,"rating":4.4,"reference":"ChIJnzcQH7pMHRURUttBI0MY0Ww","scope":"GOOGLE","types":["cafe","store","food","point_of_interest","establishment"],"user_ratings_total":1080,"vicinity":"Shivtei Israel St 14, Tel Aviv-Yafo"},{"business_status":"OPERATIONAL","geometry":{"location":{"lat":31.9860485,"lng":34.9132711},"viewport":{"northeast":{"lat":31.98722932989272,"lng":34.91469322989271},"southwest":{"lat":31.98452967010728,"lng":34.91199357010726}}},"icon":"https://maps.gstatic.com/mapfiles/place_api/icons/v1/png_71/cafe-71.png","icon_background_color":"#FF9E67","icon_mask_base_uri":"https://maps.gstatic.com/mapfiles/place_api/icons/v2/cafe_pinlet","name":"Landwer Coffee","opening_hours":{"open_now":true},"photos":[{"height":3024,"html_attributions":["<a href=\"https://maps.google.com/maps/contrib/106612668758853209848\">Igor Bendetski</a>"],"photo_reference":"AXCi2Q7nf0o_2IqO9kgzY2wo_ZU-VoSUCiWVijV87t99K414Q7u_tBp6MdoRnGaiq0WVtkj93lvK_HAmX40__-ATlI5iu5lGUy6d7S6sZe9zlJ2IpOQwi28L5UYAHcM7kHSE04ROGy7yoxBsXcpDSLLK2T35tc2w5tZ4LNepE9DugdzyF15G","width":4032}],"place_id":"ChIJC6PrFCzLAhURzpj3-VGhq-E","plus_code":{"compound_code":"XWP7+C7 Kfar Truman","global_code":"8G3PXWP7+C7"},"price_level":2,"rating":3.8,"reference":"ChIJC6PrFCzLAhURzpj3-VGhq-E","scope":"GOOGLE","types":["cafe","store","restaurant","food","point_of_interest","establishment"],"user_ratings_total":1909,"vicinity":"הנגב 1, קריית שדה התעופה"},{"business_status":"OPERATIONAL","geometry":{"location":{"lat":32.0876458,"lng":34.7749586},"viewport":{"northeast":{"lat":32.08897907989272,"lng":34.77639797989272},"southwest":{"lat":32.08627942010727,"lng":34.77369832010728}}},"icon":"https://maps.gstatic.com/mapfiles/place_api/icons/v1/png_71/cafe-71.png","icon_background_color":"#FF9E67","icon_mask_base_uri":"https://maps.gstatic.com/mapfiles/place_api/icons/v2/cafe_pinlet","name":"Origem Fresh Coffee","opening_hours":{"open_now":false},"photos":[{"height":3016,"html_attributions":["<a href=\"https://maps.google.com/maps/contrib/100461667203991542257\">Igor Olikh</a>"],"photo_reference":"AXCi2Q7QaYCKWCYeDZtHpQgjub54fCi9pHFAVk4ThrcyvRgc_X1Z4kXUrXx5pzbTt-Kf4PYqPg9r2P-HiIyyLSopjPOO0EtnESJpwwk9Hi1JeOIk3ubnzQkHYpPDa1Sx2kHtLQbv1RHRtwTIMEdYaDv1uhyxz35ItmsJFPdmBYTjEHR6dTy5","width":4032}],"place_id":"ChIJ-QkE8YlLHRURlqqPg1da7W8","plus_code":{"compound_code":"3QQF+3X Tel Aviv-Yafo","global_code":"8G4P3QQF+3X"},"price_level":2,"rating":4.7,"reference":"ChIJ-QkE8YlLHRURlqqPg1da7W8","scope":"GOOGLE","types":["cafe","store","food","point_of_interest","establishment"],"user_ratings_total":1284,"vicinity":"Dizengoff St 203, Tel Aviv-Yafo"}],"status":"OK"},{"html_attributions":[],"next_page_token":"AXCi2Q4ZRag-bXrfulCcylmvjKx39ZS9dXA_kypKD9NTysEWYwFrn6l52WJVE4PxuOycmdNzcifN3GVV0pVliceJPnGBmgSCES8pgNukSZ3gKX541qsJ9H3RezdFJSciwQx_J4TvqLKsk9bh9P8YQYK1yeTAfC18MdGxAJ4nk1R4NdBPDBMiHkOTUovut5IH0G-ZxJ8xxpcooadVuXGAvkKHzSVmVq-utOUul9gxIjf_LGj0OxmYjQqc_pGOccJDlEMRO10zJzlZXXopQaiBUODYW5r2rki-Q0FUB5uVtHLTKF-tIh8Hd0iO2X4Eo1LX-BKpZwOz8VjxuVZIMYW3gCNYx7Pys7wSfnyU757K0xvrMJy0QxzKvE-6-YmCa9H2AISZWALvKeJ5svrDSWDVk8n7l8V1PDEpWuENVK06d6mR-O1ukxnwsJOEWTNWiVb6QmVvN-LKv6q8ubmJhNx4rlORkwnvZMMquFE_XZtosNgrHzJ8a1k1gH-RLo-FESPGyHe6dAViDE3xsI_E-GkozDjKb97fhZj-DKdSHldp27aesWJQ1fsV1iLu-T55vpJhcBLg_n6kdiG_JNQEmJ5rnycWbko-GaYLm1LIVBCKZiBlIHTTWpcYP1LEjm1beiXJNZhi8yfvmtKAn2lmRycgyIsS","results":[{"business_status":"OPERATIONAL","geometry":{"location":{"lat":32.062911,"lng":34.77682679999999},"viewport":{"northeast":{"lat":32.06419217989271,"lng":34.77817617989272},"southwest":{"lat":32.06149252010727,"lng":34.77547652010728}}},"icon":"https://maps.gstatic.com/mapfiles/place_api/icons/v1/png_71/cafe-71.png","icon_background_color":"#FF9E67","icon_mask_base_uri":"https://maps.gstatic.com/mapfiles/place_api/icons/v2/cafe_pinlet","name":"WayCup Coffee","opening_hours":{"open_now":false},"photos":[{"height":4000,"html_attributions":["<a href=\"https://maps.google.com/maps/contrib/116687855686668068457\">Revital Hacham-Bar On</a>"],"photo_reference":"AXCi2Q7B5IiaO8G16YwzNya8b6cyMyBXRq28WKq9G1g4E2NEkNxlwrCVKdQfMa_a7IcmPvX_FuT0QD0UkQ009Ytyp68sS0uM0Xsxu1HFBOKYQG2cNYxhy3Era_jMlWALIR_2YEkq4sLG8PuPMhYYvd9nO5pckRxDle6EMDC88XZ9RlcXeq0X","width":3000}],"place_id":"ChIJf54Q1nxLHRURkUPjg2F4e78","plus_code":{"compound_code":"3Q7G+5P Tel Aviv-Yafo","global_code":"8G4P3Q7G+5P"},"price_level":2,"rating":4.7,"reference":"ChIJf54Q1nxLHRURkUPjg2F4e78","scope":"GOOGLE","types":["cafe","store","food","point_of_interest","establishment"],"user_ratings_total":703,"vicinity":"Mikve Israel St 17, Tel Aviv-Yafo"},{"business_status":"OPERATIONAL","geometry":{"location":{"lat":32.1122524,"lng":34.7950255},"viewport":{"northeast":{"lat":32.11373447989271,"lng":34.79628882989272},"southwest":{"lat":32.11103482010727,"lng":34.79358917010728}}},"icon":"https://maps.gstatic.com/mapfiles/place_api/icons/v1/png_71/restaurant-71.png","icon_background_color":"#FF9E67","icon_mask_base_uri":"https://maps.gstatic.com/mapfiles/place_api/icons/v2/restaurant_pinlet","name":"Grand Café Turkiz","opening_hours":{"open_now":true},"photos":[{"height":3024,"html_attributions":["<a href=\"https://maps.google.com/maps/contrib/105417266362205864514\">Helene Benalloun</a>"],"photo_reference":"AXCi2Q6yW7dlzdUJrGGqpTEQ_hT6v4lsc9Bi4BHPlGaeI9_9wHfnOUyjBXAvSQEKmbsuBMj0QHcpcOhNOVWJ207CooqPt1KN6dml_wtnXyJ5FWcUkKFYCUAJ9SFWqUSoBh-sFLBTmkcB0bj7OQPaUvETQ23cJrWiaI29uOePzFsHE8NuPtmJ","width":4032}],"place_id":"ChIJ2Rb75V1JHRURFJ5JbdVh9iI","plus_code":{"compound_code":"4Q6W+W2 Tel Aviv-Yafo","global_code":"8G4P4Q6W+W2"},"price_level":3,"rating":4.2,"reference":"ChIJ2Rb75V1JHRURFJ5JbdVh9iI","scope":"GOOGLE","types":["restaurant","cafe","food","point_of_interest","establishment"],"user_ratings_total":2277,"vicinity":"Einstein St 40, Tel Aviv-Yafo"},{"business_status":"OPERATIONAL","geometry":{"location":{"lat":32.0216022,"lng":34.7395764},"viewport":{"northeast":{"lat":32.02295822989273,"lng":34.74087247989272},"southwest":{"lat":32.02025857010729,"lng":34.73817282010728}}},"icon":"https://maps.gstatic.com/mapfiles/place_api/icons/v1/png_71/cafe-71.png","icon_background_color":"#FF9E67","icon_mask_base_uri":"https://maps.gstatic.com/mapfiles/place_api/icons/v2/cafe_pinlet","name":"Café Joe","opening_hours":{"open_now":true},"photos":[{"height":2988,"html_attributions":["<a href=\"https://maps.google.com/maps/contrib/105126244976774698400\">מירי אביב</a>"],"photo_reference":"AXCi2Q4QnqkQiNbtHVWknfHB6lYKxoy2fUs4y9hONpQVR5FN313xrGOc5qFNoKPs56ZknfM_5T8zEy6-4-BoCqF-ek3dYyr4cNZhiKlefQEn81A1ov0sH23Se6dqTnQxi9tJwGl6l12Gqe2m14lXc5oN5EjbMKqaCalXykcrmNqLzzt8bPVY","width":5312}],"place_id":"ChIJq5-qc5lLHRURm35FVtl3tL8","plus_code":{"compound_code":"2PCQ+JR Bat Yam","global_code":"8G4P2PCQ+JR"},"price_level":2,"rating":4.1,"reference":"ChIJq5-qc5lLHRURm35FVtl3tL8","scope":"GOOGLE","types":["cafe","restaurant","food","point_of_interest","establishment"],"user_ratings_total":2056,"vicinity":"Derech Ben Gurion 69, Bat Yam"},{"business_status":"OPERATIONAL","geometry":{"location":{"lat":32.1516179,"lng":34.8414914},"viewport":{"northeast":{"lat":32.15303837989272,"lng":34.84288482989272},"southwest":{"lat":32.15033872010728,"lng":34.84018517010728}}},"icon":"https://maps.gstatic.com/mapfiles/place_api/icons/v1/png_71/cafe-71.png","icon_background_color":"#FF9E67","icon_mask_base_uri":"https://maps.gstatic.com/mapfiles/place_api/icons/v2/cafe_pinlet","name":"Cafe 111","opening_hours":{"open_now":true},"photos":[{"height":3468,"html_attributions":["<a href=\"https://maps.google.com/maps/contrib/110013624710399977474\">גיא גרשוני</a>"],"photo_reference":"AXCi2Q5kosHGzgEOLIeqUXzJ0n9sMeuAYG5s3BEeaRvZ7Cd-d2twIP1Y2e4zOgEC__XHLrnu7w9BvPJWZgT52LrxXnnGnGPk2OQlelv2yLCkG3N_gJ-vm27A3u-lKed1_AZZFLB1vmLbV8YI2PAfvBAJ56G8yrzobEqANV0PUEojy9fQukMq","width":4624}],"place_id":"ChIJTUKFnEBIHRURZThD9Lcejoc","plus_code":{"compound_code":"5R2R+JH Ramat Hasharon","global_code":"8G4P5R2R+JH"},"price_level":2,"rating":4,"reference":"ChIJTUKFnEBIHRURZThD9Lcejoc","scope":"GOOGLE","types":["cafe","food","point_of_interest","establishment"],"user_ratings_total":1020,"vicinity":"Sokolov St 111, Ramat Hasharon"},{"business_status":"OPERATIONAL","geometry":{"location":{"lat":31.882411,"lng":34.8797655},"viewport":{"northeast":{"lat":31.88376077989272,"lng":34.88121257989272},"southwest":{"lat":31.88106112010728,"lng":34.87851292010728}}},"icon":"https://maps.gstatic.com/mapfiles/place_api/icons/v1/png_71/cafe-71.png","icon_background_color":"#FF9E67","icon_mask_base_uri":"https://maps.gstatic.com/mapfiles/place_api/icons/v2/cafe_pinlet","name":"C Espresso","photos":[{"height":1440,"html_attributions":["<a href=\"https://maps.google.com/maps/contrib/101962288315880296052\">יעקב זיגדון</a>"],"photo_reference":"AXCi2Q5k8g6MQcql_FMUtK4zs2Bs7nczb40evt2p4YoTb__Bi2E-1tsDxk2z3H3oZy4KTAT-kvaew-NvGFOkoRiyY-czMR0BBUx4dXpiVKBsnGeXNO5FiF86VgPFqu67SHhzVuERYpSIPi1uD2gaYmAhY7G0qAgF0DLJxen4Ro7QznOkVW2y","width":2560}],"place_id":"ChIJE4yjb8vJAhURQdqTMUpGY6Y","plus_code":{"compound_code":"VVJH+XW Gezer","global_code":"8G3PVVJH+XW"},"price_level":2,"rating":3.4,"reference":"ChIJE4yjb8vJAhURQdqTMUpGY6Y","scope":"GOOGLE","types":["cafe","food","point_of_interest","establishment"],"user_ratings_total":56,"vicinity":"Gezer"},{"business_status":"OPERATIONAL","geometry":{"location":{"lat":32.078119,"lng":34.7814614},"viewport":{"northeast":{"lat":32.07946797989272,"lng":34.78275392989272},"southwest":{"lat":32.07676832010728,"lng":34.78005427010728}}},"icon":"https://maps.gstatic.com/mapfiles/place_api/icons/v1/png_71/cafe-71.png","icon_background_color":"#FF9E67","icon_mask_base_uri":"https://maps.gstatic.com/mapfiles/place_api/icons/v2/cafe_pinlet","name":"Coffee Brands","opening_hours":{"open_now":false},"photos":[{"height":1246,"html_attributions":["<a href=\"https://maps.google.com/maps/contrib/118249834529368232794\">A Google User</a>"],"photo_reference":"AXCi2Q47DHleKthC8bRybaE2jV5JMkh0IA9EYD1cEUmjfSxtmn2O8O76n93UnLKPMfqThRWlgC_MC7--Km0F_Xt9qbrxz4L7Ra_5Teg5dxBR6mE_ccq4BHVkL3YSag_Q1zOS6HMjQUoC7oxmYGQ5kpgJ-JS660HJHpNqFNtON7bvC9_6KE4K","width":1280}],"place_id":"ChIJE0ovgmBLHRUR5tVktX6KYG0","plus_code":{"compound_code":"3QHJ+6H Tel Aviv-Yafo","global_code":"8G4P3QHJ+6H"},"rating":4.8,"reference":"ChIJE0ovgmBLHRUR5tVktX6KYG0","scope":"GOOGLE","types":["cafe","store","food","point_of_interest","establishment"],"user_ratings_total":80,"vicinity":"Shlomo Ibn Gabirol St 54, Tel Aviv-Yafo"},{"business_status":"OPERATIONAL","geometry":{"location":{"lat":32.0248913,"lng":34.8701694},"viewport":{"northeast":{"lat":32.02611497989272,"lng":34.87163052989273},"southwest":{"lat":32.02341532010728,"lng":34.86893087010728}}},"icon":"https://maps.gstatic.com/mapfiles/place_api/icons/v1/png_71/cafe-71.png","icon_background_color":"#FF9E67","icon_mask_base_uri":"https://maps.gstatic.com/mapfiles/place_api/icons/v2/cafe_pinlet","name":"Lyon Cafe","opening_hours":{"open_now":true},"photos":[{"height":3024,"html_attributions":["<a href=\"https://maps.google.com/maps/contrib/117007459994211659029\">A Google User</a>"],"photo_reference":"AXCi2Q5YZoxFhcMmAiIgq_oBMkebBM2TJaDCqI3rMM2TDiB2tjjAa4jeHJoZsJCimpcy-J3LZlDmZZsm0TDCFXDvfSgDtkOojdwD1HtjMgclehfkl-FxVl19wDG4BiISgtbrOO90LsH8_4txQwGyH_8NgZ2ycr1JpVP-_omekdjiJNom9BaN","width":4032}],"place_id":"ChIJyydD2Ns1HRURsirXLPV3FmI","plus_code":{"compound_code":"2VFC+X3 Or Yehuda","global_code":"8G4P2VFC+X3"},"price_level":2,"rating":4.5,"reference":"ChIJyydD2Ns1HRURsirXLPV3FmI","scope":"GOOGLE","types":["cafe","food","point_of_interest","establishment"],"user_ratings_total":1004,"vicinity":"מתחם מיני, Itzhak Rabin St 5, Or Yehuda"},{"business_status":"OPERATIONAL","geometry":{"location":{"lat":32.0561041,"lng":34.8577491},"viewport":{"northeast":{"lat":32.05753987989272,"lng":34.85900877989273},"southwest":{"lat":32.05484022010727,"lng":34.85630912010728}}},"icon":"https://maps.gstatic.com/mapfiles/place_api/icons/v1/png_71/cafe-71.png","icon_background_color":"#FF9E67","icon_mask_base_uri":"https://maps.gstatic.com/mapfiles/place_api/icons/v2/cafe_pinlet","name":"Gan-Sipur Cafe","opening_hours":{"open_now":true},"photos":[{"height":3167,"html_attributions":["<a href=\"https://maps.google.com/maps/contrib/114339348918810433907\">A Google User</a>"],"photo_reference":"AXCi2Q7C0bvPSfnTVw69XzUaxBH4U2stV4BhHs_XM7GcvPnqWo7v0YzJr4r8T1Oz9H-Sn3kLPW49beS-Evwmc7EZy9F8nmhJbApWvErh_cKdU0C48XxaBViOx2nAK_nasFddPr6N_H4BQXPCI3ZGwPbeWY7X82kWfRCe6IjcsGVuDyOpUguP","width":4750}],"place_id":"ChIJmTFxyUFLHRURrsaC_bMvpV0","plus_code":{"compound_code":"3V44+FX Kiryat Ono","global_code":"8G4P3V44+FX"},"price_level":2,"rating":4.5,"reference":"ChIJmTFxyUFLHRURrsaC_bMvpV0","scope":"GOOGLE","types":["cafe","restaurant","food","point_of_interest","establishment"],"user_ratings_total":2970,"vicinity":"HaMeyasedim St 3, Kiryat Ono"},{"business_status":"OPERATIONAL","geometry":{"location":{"lat":32.0024773,"lng":34.8735305},"viewport":{"northeast":{"lat":32.00379467989272,"lng":34.87481327989273},"southwest":{"lat":32.00109502010728,"lng":34.87211362010729}}},"icon":"https://maps.gstatic.com/mapfiles/place_api/icons/v1/png_71/cafe-71.png","icon_background_color":"#FF9E67","icon_mask_base_uri":"https://maps.gstatic.com/mapfiles/place_api/icons/v2/cafe_pinlet","name":"Beanz Cafe","opening_hours":{"open_now":true},"photos":[{"height":2736,"html_attributions":["<a href=\"https://maps.google.com/maps/contrib/115429473078895049684\">syonip</a>"],"photo_reference":"AXCi2Q4jlbhTWduvBeuVSExz9e302C7vA4dYpWlbEL2PbBvRJrH1F7mGRXA3IwJKLr1Psho5pmUU1D7VM82ECpcbVfv9uw4wQkrZBOsJpmKEzcVchJeC1V0tR9r8UB-Wfd3k9CF1SIUasAYn3rz1uxX-RXVeMl7fx8bNZDH38cRwtTtsxCQb","width":3648}],"place_id":"ChIJ-x290JE1HRURUzeqvMo9KPc","plus_code":{"compound_code":"2V2F+XC Yagel","global_code":"8G4P2V2F+XC"},"price_level":2,"rating":4.1,"reference":"ChIJ-x290JE1HRURUzeqvMo9KPc","scope":"GOOGLE","types":["cafe","store","food","point_of_interest","establishment"],"user_ratings_total":385,"vicinity":"Terminal 3 , Concourse E , Ben Gurion Airport Ben Gurion Airport"},{"business_status":"OPERATIONAL","geometry":{"location":{"lat":32.0662104,"lng":34.7661713},"viewport":{"northeast":{"lat":32.06759992989272,"lng":34.76747752989273},"southwest":{"lat":32.06490027010727,"lng":34.76477787010729}}},"icon":"https://maps.gstatic.com/mapfiles/place_api/icons/v1/png_71/cafe-71.png","icon_background_color":"#FF9E67","icon_mask_base_uri":"https://maps.gstatic.com/mapfiles/place_api/icons/v2/cafe_pinlet","name":"Caffe Tamati","opening_hours":{"open_now":false},"photos":[{"height":3000,"html_attributions":["<a href=\"https://maps.google.com/maps/contrib/116851704826406700206\">Natalie Berliner</a>"],"photo_reference":"AXCi2Q49c4LAhxOjeRQFkpj1aAfNO4cVr0hyV3nv-Zyelays4awtCiLCwajsH3yyRw6sE5nwT8p_bp53kmIy3kBeQlq7LS9vvz-ZWSW6GvHu0OGfwcR4byy3UxT7s9Tgzs9DKxXsdl_SM8Wi9nRco24kEkgVpTZDMdBahl4K03KSus7ME9w6","width":4000}],"place_id":"ChIJb6FA8oRMHRURb74TwNLQz_c","plus_code":{"compound_code":"3Q88+FF Tel Aviv-Yafo","global_code":"8G4P3Q88+FF"},"price_level":1,"rating":4.9,"reference":"ChIJb6FA8oRMHRURb74TwNLQz_c","scope":"GOOGLE","types":["cafe","store","food","point_of_interest","establishment"],"user_ratings_total":522,"vicinity":"Carmel Market, HaCarmel St 12, Tel Aviv-Yafo"},{"business_status":"OPERATIONAL","geometry":{"location":{"lat":31.9299029,"lng":34.7873649},"viewport":{"northeast":{"lat":31.93129297989272,"lng":34.78882397989273},"southwest":{"lat":31.92859332010728,"lng":34.78612432010728}}},"icon":"https://maps.gstatic.com/mapfiles/place_api/icons/v1/png_71/cafe-71.png","icon_background_color":"#FF9E67","icon_mask_base_uri":"https://maps.gstatic.com/mapfiles/place_api/icons/v2/cafe_pinlet","name":"קפה ללוש נס ציונה Cafe La Lush","opening_hours":{"open_now":true},"photos":[{"height":3968,"html_attributions":["<a href=\"https://maps.google.com/maps/contrib/113763064791159882118\">eyal karpel</a>"],"photo_reference":"AXCi2Q7jNoixhScyup5jZzVbarRf1qAS9KcJxTJugkYcHFxbn43q2RhtRBXM-5SCMsGs4NYhMMn08mcV9RaUwz8pICEht2UZX5SKskH1E3nh2tDZwWXVk2-U27YBKXDEfpexUgFtvi9cn-kFApV2PRznY892T2q67J2iq9suoP_W8VsBtJN2","width":2976}],"place_id":"ChIJM9TfEMS3AhURUxsGzLmjRPs","plus_code":{"compound_code":"WQHP+XW Ness Ziona","global_code":"8G3PWQHP+XW"},"price_level":2,"rating":4.4,"reference":"ChIJM9TfEMS3AhURUxsGzLmjRPs","scope":"GOOGLE","types":["cafe","restaurant","food","point_of_interest","establishment"],"user_ratings_total":1903,"vicinity":"Moshe Lerer St 1, Ness Ziona"},{"business_status":"OPERATIONAL","geometry":{"location":{"lat":32.0553255,"lng":34.8637751},"viewport":{"northeast":{"lat":32.05655927989272,"lng":34.86513247989271},"southwest":{"lat":32.05385962010727,"lng":34.86243282010727}}},"icon":"https://maps.gstatic.com/mapfiles/place_api/icons/v1/png_71/cafe-71.png","icon_background_color":"#FF9E67","icon_mask_base_uri":"https://maps.gstatic.com/mapfiles/place_api/icons/v2/cafe_pinlet","name":"Cafe Zelik","opening_hours":{"open_now":true},"photos":[{"height":3456,"html_attributions":["<a href=\"https://maps.google.com/maps/contrib/104146227671449889278\">Serafima Kutsebko</a>"],"photo_reference":"AXCi2Q5lKPT_An1ditishAXjcOHC6I7zqshCpONMR0vUtXuiL2qiOHruY_SU9JglcCY_fNj4yv6I0MCNiK3U_0INFZS4fiI6P0MjLMTD-i_Se2_5XflejZ_6V7BjV-xfRjMUoPaIbs2Ch1nDsJri2crkNFNT6fzF5I0E5GoWrBTtky5miZ6F","width":4608}],"place_id":"ChIJOWVyCYg1HRURmKjuV2K1isc","plus_code":{"compound_code":"3V47+4G Kiryat Ono","global_code":"8G4P3V47+4G"},"price_level":2,"rating":4,"reference":"ChIJOWVyCYg1HRURmKjuV2K1isc","scope":"GOOGLE","types":["cafe","restaurant","food","point_of_interest","establishment"],"user_ratings_total":2190,"vicinity":"קניון, Shlomo ha-Melekh St 35, Kiryat Ono"},{"business_status":"OPERATIONAL","geometry":{"location":{"lat":32.0768406,"lng":34.8156288},"viewport":{"northeast":{"lat":32.07815102989272,"lng":34.81693912989272},"southwest":{"lat":32.07545137010728,"lng":34.81423947010727}}},"icon":"https://maps.gstatic.com/mapfiles/place_api/icons/v1/png_71/cafe-71.png","icon_background_color":"#FF9E67","icon_mask_base_uri":"https://maps.gstatic.com/mapfiles/place_api/icons/v2/cafe_pinlet","name":"Johnny's Café","opening_hours":{"open_now":true},"photos":[{"height":3008,"html_attributions":["<a href=\"https://maps.google.com/maps/contrib/104242041788056864879\">A Google User</a>"],"photo_reference":"AXCi2Q44UiaazrTZ_Qg1fs2AY8nTxjuyAvcW_JDQ4DX60HmnQQco3hQgzkUn2fB1yW4Hbbu8I-6soJI-rvWDScMjtoi0REUOmWYde8O_r8CgItJ0fdgl_EFBRotQ7vN7VDapAEuKxI-TnJrQOmzW1rmahUTvkfJEPU8aV922TMwNsKuL3MYN","width":4512}],"place_id":"ChIJ8_ve7gVLHRURQHY3opXupDs","plus_code":{"compound_code":"3RG8+P7 Giv'atayim","global_code":"8G4P3RG8+P7"},"price_level":2,"rating":4.2,"reference":"ChIJ8_ve7gVLHRURQHY3opXupDs","scope":"GOOGLE","types":["cafe","food","point_of_interest","establishment"],"user_ratings_total":808,"vicinity":"Katzenelson St 125, Giv'atayim"},{"business_status":"OPERATIONAL","geometry":{"location":{"lat":32.066006,"lng":34.771794},"viewport":{"northeast":{"lat":32.06737297989272,"lng":34.77319617989271},"southwest":{"lat":32.06467332010728,"lng":34.77049652010727}}},"icon":"https://maps.gstatic.com/mapfiles/place_api/icons/v1/png_71/restaurant-71.png","icon_background_color":"#FF9E67","icon_mask_base_uri":"https://maps.gstatic.com/mapfiles/place_api/icons/v2/restaurant_pinlet","name":"Cafe Allenby 96","photos":[{"height":527,"html_attributions":["<a href=\"https://maps.google.com/maps/contrib/117821707213157930742\">A Google User</a>"],"photo_reference":"AXCi2Q4_ezFyGxFYUCnVIC31ys1z7bjXkFEBT11NSZd8WXd8XBBCkBu519bP8XAo_dwbL947MITIFD3QrhS9lJpIivzVveyBUAcQpiIEVvBeA8gUkj4Xq13WBSnl-0KWLq3TcmrNvzinMMVk4WoX94C3SU_th1oLte0xmMIB1T64TxAeVtNP","width":792}],"place_id":"ChIJmY7o-oJMHRURm9XUB262LJs","plus_code":{"compound_code":"3Q8C+CP Tel Aviv-Yafo","global_code":"8G4P3Q8C+CP"},"rating":4.7,"reference":"ChIJmY7o-oJMHRURm9XUB262LJs","scope":"GOOGLE","types":["restaurant","cafe","food","point_of_interest","establishment"],"user_ratings_total":18,"vicinity":"Allenby St 96, Tel Aviv-Yafo"},{"business_status":"OPERATIONAL","geometry":{"location":{"lat":32.1035464,"lng":34.7770385},"viewport":{"northeast":{"lat":32.10455432989271,"lng":34.77876947989272},"southwest":{"lat":32.10185467010727,"lng":34.77606982010728}}},"icon":"https://maps.gstatic.com/mapfiles/place_api/icons/v1/png_71/cafe-71.png","icon_background_color":"#FF9E67","icon_mask_base_uri":"https://maps.gstatic.com/mapfiles/place_api/icons/v2/cafe_pinlet","name":"Migdalor Cafe","opening_hours":{"open_now":true},"photos":[{"height":4032,"html_attributions":["<a href=\"https://maps.google.com/maps/contrib/116866815477858525386\">DANIELLE goldberg</a>"],"photo_reference":"AXCi2Q5LV7f8nQmdwt7QkCTA2FA7gQ3VFg-rmiw6YAZWrOOMMs1c7ypII3QN8lqTAls8RYBsDRcmOtpiGpZvP7TdTfpaS4svcRdfRR1cCGXzAxNV5ah60qukvg8aicSfuWK-VtReoeFGmvNIE7870OruMJU149bPy0w-p5971qQetSLq0Zw","width":2268}],"place_id":"ChIJr1VlIx5LHRURcf080fdDbAU","plus_code":{"compound_code":"4Q3G+CR Tel Aviv-Yafo","global_code":"8G4P4Q3G+CR"},"price_level":2,"rating":4.1,"reference":"ChIJr1VlIx5LHRURcf080fdDbAU","scope":"GOOGLE","types":["cafe","food","point_of_interest","establishment"],"user_ratings_total":726,"vicinity":"Rekhav'am Ze'evi Gandi St 1, Tel Aviv-Yafo"},{"business_status":"OPERATIONAL","geometry":{"location":{"lat":32.0792352,"lng":34.7789159},"viewport":{"northeast":{"lat":32.08053182989273,"lng":34.78034907989272},"southwest":{"lat":32.07783217010729,"lng":34.77764942010727}}},"icon":"https://maps.gstatic.com/mapfiles/place_api/icons/v1/png_71/cafe-71.png","icon_background_color":"#FF9E67","icon_mask_base_uri":"https://maps.gstatic.com/mapfiles/place_api/icons/v2/cafe_pinlet","name":"Frida Coffee","opening_hours":{"open_now":false},"photos":[{"height":4032,"html_attributions":["<a href=\"https://maps.google.com/maps/contrib/115206398147748183874\">A Google User</a>"],"photo_reference":"AXCi2Q43d6gXJ8zwOzPSu9BhydYmNUMM4bxKhJTIJVyKGxySgZ4-lp4y4wqYePtXnq-um9SpelP87RuoJ_2x66jMzRiUA3H2IACID4vKd7Cnyd5EuETn8K4YZXDulbqK7M7bLy23fDTvijat1Zg55t8XUv7BhF7QeXjeCf3bQO24Ykmk8kc","width":3024}],"place_id":"ChIJj1KajhdLHRURHO71jtqFomI","plus_code":{"compound_code":"3QHH+MH Tel Aviv-Yafo","global_code":"8G4P3QHH+MH"},"rating":4.8,"reference":"ChIJj1KajhdLHRURHO71jtqFomI","scope":"GOOGLE","types":["cafe","food","point_of_interest","establishment"],"user_ratings_total":76,"vicinity":"Sderot Masaryk 19, Tel Aviv-Yafo"},{"business_status":"OPERATIONAL","geometry":{"location":{"lat":32.1161535,"lng":34.9560837},"viewport":{"northeast":{"lat":32.11750367989273,"lng":34.95742692989273},"southwest":{"lat":32.11480402010729,"lng":34.95472727010728}}},"icon":"https://maps.gstatic.com/mapfiles/place_api/icons/v1/png_71/cafe-71.png","icon_background_color":"#FF9E67","icon_mask_base_uri":"https://maps.gstatic.com/mapfiles/place_api/icons/v2/cafe_pinlet","name":"Awtar Cafe اوتار كافيه","opening_hours":{"open_now":true},"photos":[{"height":3615,"html_attributions":["<a href=\"https://maps.google.com/maps/contrib/106580946336514480554\">hoda alnbary</a>"],"photo_reference":"AXCi2Q6Ca2olA4v8Z05wc_1ma0AnubdshCbAN3WCF743fDry6BRq6pEYgzWUqVGLe_1L9mesbo-GXTdaCPYalyK_TZmDil3cKJtUL8d_PBuPsWkTM0VvqRkckAWAkt2JdvOgz69R54poNla3KsQdk9j9PKJuyTZDHYtYDwlndMQ5fTI9_12e","width":2252}],"place_id":"ChIJc6rBVQwxHRURDe53Laihg1E","plus_code":{"compound_code":"4X84+FC Kfar Qasim","global_code":"8G4P4X84+FC"},"rating":4.6,"reference":"ChIJc6rBVQwxHRURDe53Laihg1E","scope":"GOOGLE","types":["cafe","food","point_of_interest","establishment"],"user_ratings_total":71,"vicinity":"דרך השוק כפר קאסם"},{"business_status":"OPERATIONAL","geometry":{"location":{"lat":32.0193614,"lng":34.7392638},"viewport":{"northeast":{"lat":32.02070112989272,"lng":34.74052217989272},"southwest":{"lat":32.01800147010727,"lng":34.73782252010727}}},"icon":"https://maps.gstatic.com/mapfiles/place_api/icons/v1/png_71/cafe-71.png","icon_background_color":"#FF9E67","icon_mask_base_uri":"https://maps.gstatic.com/mapfiles/place_api/icons/v2/cafe_pinlet","name":"קפה קפה, בת ים","opening_hours":{"open_now":true},"photos":[{"height":3000,"html_attributions":["<a href=\"https://maps.google.com/maps/contrib/101150201251234170857\">netanel almasi</a>"],"photo_reference":"AXCi2Q7bCGkzOUyf9ZJP14Wtul_L8LWOY7FH6rrZAhYWiZkSiIU5lX13_az7PALD10CH-rLcKJOlRqwFTKeWE8sGxg26Ad6w2uSFyTgiBxlg1jEH64nmQLpr48roytvOR-9kvnjudbKr_8O-I3XYkVHrd1Ri33S66O5qufXBLU2662iCNDx1","width":4000}],"place_id":"ChIJY9jNixmzAhURjMbbFtHL_Ss","plus_code":{"compound_code":"2P9Q+PP Bat Yam","global_code":"8G4P2P9Q+PP"},"price_level":2,"rating":4,"reference":"ChIJY9jNixmzAhURjMbbFtHL_Ss","scope":"GOOGLE","types":["cafe","store","restaurant","food","point_of_interest","establishment"],"user_ratings_total":642,"vicinity":"Derech Ben Gurion 81, Bat Yam"},{"business_status":"OPERATIONAL","geometry":{"location":{"lat":32.0708211,"lng":34.7718539},"viewport":{"northeast":{"lat":32.07213332989271,"lng":34.77323717989272},"southwest":{"lat":32.06943367010727,"lng":34.77053752010727}}},"icon":"https://maps.gstatic.com/mapfiles/place_api/icons/v1/png_71/cafe-71.png","icon_background_color":"#FF9E67","icon_mask_base_uri":"https://maps.gstatic.com/mapfiles/place_api/icons/v2/cafe_pinlet","name":"The Realities Of Coffee","opening_hours":{"open_now":false},"photos":[{"height":4032,"html_attributions":["<a href=\"https://maps.google.com/maps/contrib/113230794004203393559\">Daniel Tourgman</a>"],"photo_reference":"AXCi2Q4xnzNMR4IkP9s7wLANQjgFg7sEd6MNwS-fA_uhlpDORdaAHN-QCTbnZdMRLD3bcotI8kV-12tG0ujdaOKWYjM1mOHNYYQj0VzUkrgao9SVOUEO6aOo9lQBTfOSbZ6sa_asFZWzD-mqDgz9xcGwkcDrcmqnjzxL2URAJ3ZdzBNn7hps","width":3024}],"place_id":"ChIJqyWImxNNHRURNAP1Vxvn7TU","plus_code":{"compound_code":"3QCC+8P Tel Aviv-Yafo","global_code":"8G4P3QCC+8P"},"rating":4.9,"reference":"ChIJqyWImxNNHRURNAP1Vxvn7TU","scope":"GOOGLE","types":["cafe","store","food","point_of_interest","establishment"],"user_ratings_total":17,"vicinity":"King George St 13, Tel Aviv-Yafo"},{"business_status":"OPERATIONAL","geometry":{"location":{"lat":31.9905108,"lng":34.765605},"viewport":{"northeast":{"lat":31.99179852989272,"lng":34.76689772989272},"southwest":{"lat":31.98909887010728,"lng":34.76419807010728}}},"icon":"https://maps.gstatic.com/mapfiles/place_api/icons/v1/png_71/cafe-71.png","icon_background_color":"#FF9E67","icon_mask_base_uri":"https://maps.gstatic.com/mapfiles/place_api/icons/v2/cafe_pinlet","name":"Cafe Lishanski","photos":[{"height":1836,"html_attributions":["<a href=\"https://maps.google.com/maps/contrib/108762106861502365136\">בר מוסרי</a>"],"photo_reference":"AXCi2Q7mpOlD5wuAHEaoWiRpEvx9rflSo0E0hICKqY1ubIl3tZRW4PL7-ToPhpyqMf5t6dBXBnp-vn3FJ2NM9-m__uW7m6QYmX4NEZAO33tmKIxj4AVuhFyirkIJFcGW1ncaDQ8JTo99dzGGZfTTsZ7GBDya20Mi-didmGvHs4YPLXkaQMQu","width":3264}],"place_id":"ChIJgV-xobSzAhURQTqLPl-UbP4","plus_code":{"compound_code":"XQR8+66 Rishon LeTsiyon","global_code":"8G3PXQR8+66"},"rating":4.5,"reference":"ChIJgV-xobSzAhURQTqLPl-UbP4","scope":"GOOGLE","types":["cafe","food","point_of_interest","establishment"],"user_ratings_total":68,"vicinity":"Yosef Lishanski Blvd 11, Rishon LeTsiyon"}],"status":"OK"},{"html_attributions":[],"results":[{"business_status":"OPERATIONAL","geometry":{"location":{"lat":32.0650579,"lng":34.7874116},"viewport":{"northeast":{"lat":32.06645122989271,"lng":34.78877222989271},"southwest":{"lat":32.06375157010727,"lng":34.78607257010727}}},"icon":"https://maps.gstatic.com/mapfiles/place_api/icons/v1/png_71/cafe-71.png","icon_background_color":"#FF9E67","icon_mask_base_uri":"https://maps.gstatic.com/mapfiles/place_api/icons/v2/cafe_pinlet","name":"Edmund Coffee","opening_hours":{"open_now":false},"photos":[{"height":1932,"html_attributions":["<a href=\"https://maps.google.com/maps/contrib/112321659364695166457\">חנה דן</a>"],"photo_reference":"AXCi2Q4R4eX2QTYQFdKhU9xVLblmBKCWwfcCVFI9j7jvjocTHuXIDJb3NDX0kHNOORFpOS3qybQliXLmdNAifRu6VMe9PPa0JlP0H2x49tY1-2wjPW-RCeK5F9Nma_v6OdXpsqOf5OxUMSgZ0M4UEhzPdCQH_9J-NuYluqpKEvPIB3-y_F9X","width":2576}],"place_id":"ChIJX6vMwIJMHRURikTt4Jw0Iwg","plus_code":{"compound_code":"3Q8P+2X Tel Aviv-Yafo","global_code":"8G4P3Q8P+2X"},"price_level":2,"rating":4.6,"reference":"ChIJX6vMwIJMHRURikTt4Jw0Iwg","scope":"GOOGLE","types":["cafe","food","point_of_interest","store","establishment"],"user_ratings_total":768,"vicinity":"Yitzhak Sadeh St 32, Tel Aviv-Yafo"},{"business_status":"OPERATIONAL","geometry":{"location":{"lat":32.0774775,"lng":34.7766556},"viewport":{"northeast":{"lat":32.07883302989272,"lng":34.77796487989272},"southwest":{"lat":32.07613337010728,"lng":34.77526522010728}}},"icon":"https://maps.gstatic.com/mapfiles/place_api/icons/v1/png_71/cafe-71.png","icon_background_color":"#FF9E67","icon_mask_base_uri":"https://maps.gstatic.com/mapfiles/place_api/icons/v2/cafe_pinlet","name":"Cafelix","opening_hours":{"open_now":false},"photos":[{"height":4032,"html_attributions":["<a href=\"https://maps.google.com/maps/contrib/112484940294640180169\">Daniel Klein</a>"],"photo_reference":"AXCi2Q4wEmmsA-6GMcN8jWseJqdc1ZslGtK07FqJggIPPgz2B1fzFe7YnV7Yfp58NQFsTtvpXbJZ6VuKVHsGCxGsXrxH76640-mFlGxF9yXTJJTwyX2fQlibu2VR_oB3IIA0z262F_MdomUaUbhghz8IIzCMIzVbGl_T8wo0D-QKhz3OrnHT","width":3024}],"place_id":"ChIJFRmg1IBLHRUR4yKpBbSx934","plus_code":{"compound_code":"3QGG+XM Tel Aviv-Yafo","global_code":"8G4P3QGG+XM"},"price_level":1,"rating":4.7,"reference":"ChIJFRmg1IBLHRUR4yKpBbSx934","scope":"GOOGLE","types":["cafe","food","point_of_interest","store","establishment"],"user_ratings_total":1010,"vicinity":"Shlomo HaMelekh St 12, Tel Aviv-Yafo"},{"business_status":"OPERATIONAL","geometry":{"location":{"lat":32.0778089,"lng":34.8148298},"viewport":{"northeast":{"lat":32.07917327989273,"lng":34.81615807989272},"southwest":{"lat":32.07647362010728,"lng":34.81345842010728}}},"icon":"https://maps.gstatic.com/mapfiles/place_api/icons/v1/png_71/cafe-71.png","icon_background_color":"#FF9E67","icon_mask_base_uri":"https://maps.gstatic.com/mapfiles/place_api/icons/v2/cafe_pinlet","name":"Tom's Coffee","opening_hours":{"open_now":false},"photos":[{"height":4624,"html_attributions":["<a href=\"https://maps.google.com/maps/contrib/116561812227176402084\">Tom Cohen</a>"],"photo_reference":"AXCi2Q5jigQG1OgRko4EmH-ETtj1uJsoiykTAdmCDV-hhCxAHzIVmIxMVIAMandlSiNBFuMv_krpFGWvGsqBSURxoVfLEIT9E-MHInPMcZaMUVE5vIQLIbIVFVvISQL6juJ2WD8jFhsBx-18eUJiIwUxZfDWYL4OkknN4rhsL4qlfomztdHq","width":3468}],"place_id":"ChIJN4lORO5LHRURCTBopz3vSAc","plus_code":{"compound_code":"3RH7+4W Giv'atayim","global_code":"8G4P3RH7+4W"},"rating":4.8,"reference":"ChIJN4lORO5LHRURCTBopz3vSAc","scope":"GOOGLE","types":["cafe","food","point_of_interest","store","establishment"],"user_ratings_total":113,"vicinity":"Sirkin St 14, Giv'atayim"},{"business_status":"OPERATIONAL","geometry":{"location":{"lat":32.0809187,"lng":34.7702554},"viewport":{"northeast":{"lat":32.08224422989272,"lng":34.77166762989272},"southwest":{"lat":32.07954457010728,"lng":34.76896797010728}}},"icon":"https://maps.gstatic.com/mapfiles/place_api/icons/v1/png_71/cafe-71.png","icon_background_color":"#FF9E67","icon_mask_base_uri":"https://maps.gstatic.com/mapfiles/place_api/icons/v2/cafe_pinlet","name":"CafeXoho","opening_hours":{"open_now":false},"photos":[{"height":3024,"html_attributions":["<a href=\"https://maps.google.com/maps/contrib/107350867930272578220\">Yoann</a>"],"photo_reference":"AXCi2Q4KwspdhKofYPvo809zp0ydFSB0fmAIDbRLiOxbePtm48MzDjDfoVCwoo38Z4DqPpn19ZycvPAluzziUgttcCrhWeiRuKWR21WedPjemm5aRm6eJjIsMvMF0Ut81yWEoMNx5xZdeQaykmWHvKQtLZ_sNa2qznWVbB08jtqSzKFlP4lx","width":4032}],"place_id":"ChIJqT1ArXlMHRURc65-yk0QQlA","plus_code":{"compound_code":"3QJC+94 Tel Aviv-Yafo","global_code":"8G4P3QJC+94"},"price_level":2,"rating":4.5,"reference":"ChIJqT1ArXlMHRURc65-yk0QQlA","scope":"GOOGLE","types":["cafe","grocery_or_supermarket","restaurant","food","point_of_interest","store","establishment"],"user_ratings_total":1704,"vicinity":"Ben Yehuda St 73, Tel Aviv-Yafo"},{"business_status":"OPERATIONAL","geometry":{"location":{"lat":32.0649527,"lng":34.76661},"viewport":{"northeast":{"lat":32.06631277989273,"lng":34.76794567989272},"southwest":{"lat":32.06361312010728,"lng":34.76524602010728}}},"icon":"https://maps.gstatic.com/mapfiles/place_api/icons/v1/png_71/cafe-71.png","icon_background_color":"#FF9E67","icon_mask_base_uri":"https://maps.gstatic.com/mapfiles/place_api/icons/v2/cafe_pinlet","name":"HOC - House of Coffee","opening_hours":{"open_now":false},"photos":[{"height":3000,"html_attributions":["<a href=\"https://maps.google.com/maps/contrib/111982308683478656480\">Boris o</a>"],"photo_reference":"AXCi2Q7Ctufgt6XyMpxB-pcCTaDcqG1Bo5X2zjKX7AEtnazWzCWQJLcKGhWIh_wuQw4Xbm1fSKld57M6WjFcg_pa_ED4CL_3aHMpaq1GRhT8I6alnoM3RiMsvuhwtynHDDjTgKwglXzHo3veUYOKI9ctI36P4bS26TUkitBhKVdNGW2jSOiF","width":4000}],"place_id":"ChIJyZNcax9NHRURaoGasCiP9cA","plus_code":{"compound_code":"3Q78+XJ Tel Aviv-Yafo","global_code":"8G4P3Q78+XJ"},"price_level":2,"rating":4.6,"reference":"ChIJyZNcax9NHRURaoGasCiP9cA","scope":"GOOGLE","types":["cafe","food","point_of_interest","establishment"],"user_ratings_total":1111,"vicinity":"HaTavor St 2, Tel Aviv-Yafo"},{"business_status":"OPERATIONAL","geometry":{"location":{"lat":32.0663768,"lng":34.77644069999999},"viewport":{"northeast":{"lat":32.06771092989272,"lng":34.77783582989272},"southwest":{"lat":32.06501127010728,"lng":34.77513617010727}}},"icon":"https://maps.gstatic.com/mapfiles/place_api/icons/v1/png_71/cafe-71.png","icon_background_color":"#FF9E67","icon_mask_base_uri":"https://maps.gstatic.com/mapfiles/place_api/icons/v2/cafe_pinlet","name":"Coffee Shop 51","opening_hours":{"open_now":false},"photos":[{"height":3024,"html_attributions":["<a href=\"https://maps.google.com/maps/contrib/100193312257862902879\">Or Ben Zeev</a>"],"photo_reference":"AXCi2Q54O9t6eyzj9-0gwlITa3UIpJRti6FXdY935urzPnq6tjeKVNTj_yKl2MxTgFLXamwjyNGSXFwENqoYvHt8kKOTEJpUodpF44Xvqwszzem1rI9TefprGhKDO8M3ZNAE7Gx4E5E3mVUGA_8T1Khdt5EafKx0KCbecykf_MuEhach6mkt","width":4032}],"place_id":"ChIJi1cByn1LHRURxLMG0vZfwfk","plus_code":{"compound_code":"3Q8G+GH Tel Aviv-Yafo","global_code":"8G4P3Q8G+GH"},"price_level":1,"rating":4.6,"reference":"ChIJi1cByn1LHRURxLMG0vZfwfk","scope":"GOOGLE","types":["cafe","food","point_of_interest","establishment"],"user_ratings_total":884,"vicinity":"Ahad Ha'Am St 51, Tel Aviv-Yafo"},{"business_status":"OPERATIONAL","geometry":{"location":{"lat":32.0991619,"lng":34.776124},"viewport":{"northeast":{"lat":32.10052962989272,"lng":34.77736437989272},"southwest":{"lat":32.09782997010728,"lng":34.77466472010727}}},"icon":"https://maps.gstatic.com/mapfiles/place_api/icons/v1/png_71/cafe-71.png","icon_background_color":"#FF9E67","icon_mask_base_uri":"https://maps.gstatic.com/mapfiles/place_api/icons/v2/cafe_pinlet","name":"Fit house CAFE קפה פיט האוס","opening_hours":{"open_now":false},"photos":[{"height":1152,"html_attributions":["<a href=\"https://maps.google.com/maps/contrib/106030422034621707804\">A Google User</a>"],"photo_reference":"AXCi2Q4Aj9kNMw0HM698DWSDMXLELpFmFueihXrHTmCz_E6w5LAXSMxFsFzA_sGyTa783O77zZTorM2RFJS9qn4mXJ_lRJU9oRhb1EHDI3DvQHv7Ta-FR8MSMJPeP109rgax8c47TfQL_3YnSC3AhwJf06bahxgfMekeMgJppMAbAnnTs3bb","width":2048}],"place_id":"ChIJ0-O7j4tLHRUR-j6luFPYN-A","plus_code":{"compound_code":"3QXG+MC Tel Aviv-Yafo","global_code":"8G4P3QXG+MC"},"rating":5,"reference":"ChIJ0-O7j4tLHRUR-j6luFPYN-A","scope":"GOOGLE","types":["cafe","food","point_of_interest","store","establishment"],"user_ratings_total":70,"vicinity":"Kikar Plumer 22, Tel Aviv-Yafo"},{"business_status":"OPERATIONAL","geometry":{"location":{"lat":32.1167542,"lng":34.9482276},"viewport":{"northeast":{"lat":32.11811547989272,"lng":34.94968367989272},"southwest":{"lat":32.11541582010728,"lng":34.94698402010728}}},"icon":"https://maps.gstatic.com/mapfiles/place_api/icons/v1/png_71/cafe-71.png","icon_background_color":"#FF9E67","icon_mask_base_uri":"https://maps.gstatic.com/mapfiles/place_api/icons/v2/cafe_pinlet","name":"בית קפה אחים סרייה","opening_hours":{"open_now":true},"photos":[{"height":2250,"html_attributions":["<a href=\"https://maps.google.com/maps/contrib/107608296368635396418\">mhmad shwahna</a>"],"photo_reference":"AXCi2Q4j6fPLUAmvixqG1mZlVeRP8SMg8Sg73wbYmziQREf041t9YHpWUrmkfaQTSuyTTRvgD2cTa1wt06oRsZ5gnt7X2P4tXBCmU0-4Ba4Hv8hzsfLrJwHfcv5oCOTKssEvAnIZnf-GVRjWzWT1l-QeFb2B-WB27TY4mjTWbIZSu7Z48O91","width":4000}],"place_id":"ChIJuZg2CTU3HRURtDT3q2VmC5U","plus_code":{"compound_code":"4W8X+P7 Kfar Qasim","global_code":"8G4P4W8X+P7"},"price_level":1,"rating":4.1,"reference":"ChIJuZg2CTU3HRURtDT3q2VmC5U","scope":"GOOGLE","types":["cafe","food","point_of_interest","establishment"],"user_ratings_total":45,"vicinity":"אחים סרייה"},{"business_status":"OPERATIONAL","geometry":{"location":{"lat":32.0931391,"lng":34.865984},"viewport":{"northeast":{"lat":32.09437207989273,"lng":34.86744587989271},"southwest":{"lat":32.09167242010729,"lng":34.86474622010727}}},"icon":"https://maps.gstatic.com/mapfiles/place_api/icons/v1/png_71/cafe-71.png","icon_background_color":"#FF9E67","icon_mask_base_uri":"https://maps.gstatic.com/mapfiles/place_api/icons/v2/cafe_pinlet","name":"Greg Cafe","opening_hours":{"open_now":true},"photos":[{"height":3000,"html_attributions":["<a href=\"https://maps.google.com/maps/contrib/103895940396163680225\">MICHAEL SOLITERMAN</a>"],"photo_reference":"AXCi2Q7FXAkfT0ejdBnM-NF3LJOWWfXN5Nhn_B4Osf8ZNT19g8BHBr3jQEeb0zjJznvEQiVZVbu4jQ3To5GavtpgRBuPuLhtQ-SDz9Q1bA5s2Dowo8Oxv9VGDIWGL_u7F3HJn96nLz-Ylk0RN07zrYzhlh1j6Z5yOHxUeTszrD8sVTZi8SOC","width":4000}],"place_id":"ChIJA__EFwM2HRURr0ZVLIF2fdE","plus_code":{"compound_code":"3VV8+79 Petah Tikva","global_code":"8G4P3VV8+79"},"price_level":2,"rating":4.1,"reference":"ChIJA__EFwM2HRURr0ZVLIF2fdE","scope":"GOOGLE","types":["cafe","food","point_of_interest","establishment"],"user_ratings_total":1237,"vicinity":"Zeev Jabotinsky St 72, Petah Tikva"},{"business_status":"OPERATIONAL","geometry":{"location":{"lat":32.0745105,"lng":34.7704799},"viewport":{"northeast":{"lat":32.07589277989272,"lng":34.77180192989272},"southwest":{"lat":32.07319312010728,"lng":34.76910227010728}}},"icon":"https://maps.gstatic.com/mapfiles/place_api/icons/v1/png_71/cafe-71.png","icon_background_color":"#FF9E67","icon_mask_base_uri":"https://maps.gstatic.com/mapfiles/place_api/icons/v2/cafe_pinlet","name":"Café Shneor","opening_hours":{"open_now":false},"photos":[{"height":2795,"html_attributions":["<a href=\"https://maps.google.com/maps/contrib/103872693107859451662\">סוכר</a>"],"photo_reference":"AXCi2Q7eAZOdVijc5KAXngFrkdoxJcyoJ8nvJlGBK-1kxc4dYfkOeVFA_8h0kgW2QO0OuiV-caXxz6zgXL74eDNbApv7nnWAOHmgeMlfVu0QoHOWmkISrT6MOweh5MLSQYfJJxdbO2UvSK-d7dU7_Ne3UNNNK48HsQ2c8w8K0-awFTtWDyVo","width":4192}],"place_id":"ChIJn7pmJ35MHRURz0lTk-FmpvY","plus_code":{"compound_code":"3QFC+R5 Tel Aviv-Yafo","global_code":"8G4P3QFC+R5"},"price_level":2,"rating":4.5,"reference":"ChIJn7pmJ35MHRURz0lTk-FmpvY","scope":"GOOGLE","types":["cafe","restaurant","food","point_of_interest","store","establishment"],"user_ratings_total":1631,"vicinity":"Pinsker St 20, Tel Aviv-Yafo"},{"business_status":"OPERATIONAL","geometry":{"location":{"lat":32.0226251,"lng":34.7501816},"viewport":{"northeast":{"lat":32.02397547989272,"lng":34.75148587989272},"southwest":{"lat":32.02127582010728,"lng":34.74878622010728}}},"icon":"https://maps.gstatic.com/mapfiles/place_api/icons/v1/png_71/cafe-71.png","icon_background_color":"#FF9E67","icon_mask_base_uri":"https://maps.gstatic.com/mapfiles/place_api/icons/v2/cafe_pinlet","name":"קפה 31 - Coffee 31","opening_hours":{"open_now":false},"photos":[{"height":3024,"html_attributions":["<a href=\"https://maps.google.com/maps/contrib/112953351704678427623\">Nitsa Laniado</a>"],"photo_reference":"AXCi2Q4rMlHbMiHN6I6j0775Ad4wBgo7_2IRGzQslDkgAPwtCIV4_ZCE3KkEIDTiiR6kW-7MZ2udwmYy_sBktrM_fxixzoEatTYwSnprQfnwBq0qWPqYkxzV_MMmf2fXB6jpJQFq56xAF9CF_mo3Kb4lCpe0-8MF7G5yJUQC7D2u7JST1VeV","width":4032}],"place_id":"ChIJOdGN9V6zAhURRyAXWypPhRM","plus_code":{"compound_code":"2QF2+33 Bat Yam","global_code":"8G4P2QF2+33"},"rating":5,"reference":"ChIJOdGN9V6zAhURRyAXWypPhRM","scope":"GOOGLE","types":["cafe","food","point_of_interest","store","establishment"],"user_ratings_total":25,"vicinity":"Daniel St 31, Bat Yam"},{"business_status":"OPERATIONAL","geometry":{"location":{"lat":32.0857811,"lng":34.7791197},"viewport":{"northeast":{"lat":32.08718957989272,"lng":34.78049142989271},"southwest":{"lat":32.08448992010728,"lng":34.77779177010727}}},"icon":"https://maps.gstatic.com/mapfiles/place_api/icons/v1/png_71/cafe-71.png","icon_background_color":"#FF9E67","icon_mask_base_uri":"https://maps.gstatic.com/mapfiles/place_api/icons/v2/cafe_pinlet","name":"איזי קפה","opening_hours":{"open_now":false},"photos":[{"height":3024,"html_attributions":["<a href=\"https://maps.google.com/maps/contrib/105227742442303238930\">A Google User</a>"],"photo_reference":"AXCi2Q73VtqbDYTQI_A23JkdRPUftv7FCl0w6rJseUZ3r7R3BzqSeqL66zvZjsKkQDu_ey6BwX1w9V-eycBX7mNXo8f__rZc6ACL3KRqZW14kT09bCdc1kdEo5ytsZyD_SKEraUhBehKIeY9kIrfLgIoGnSke9Y9r99qG3nUC-LXx5ir-SaE","width":4032}],"place_id":"ChIJHcHLTolLHRUR8hFMfBGi4pU","plus_code":{"compound_code":"3QPH+8J Tel Aviv-Yafo","global_code":"8G4P3QPH+8J"},"price_level":2,"rating":4.5,"reference":"ChIJHcHLTolLHRUR8hFMfBGi4pU","scope":"GOOGLE","types":["cafe","food","point_of_interest","establishment"],"user_ratings_total":1555,"vicinity":"Arlozorov St 76, Tel Aviv-Yafo"},{"business_status":"OPERATIONAL","geometry":{"location":{"lat":32.0556007,"lng":34.7723214},"viewport":{"northeast":{"lat":32.05691872989272,"lng":34.77375127989272},"southwest":{"lat":32.05421907010727,"lng":34.77105162010728}}},"icon":"https://maps.gstatic.com/mapfiles/place_api/icons/v1/png_71/cafe-71.png","icon_background_color":"#FF9E67","icon_mask_base_uri":"https://maps.gstatic.com/mapfiles/place_api/icons/v2/cafe_pinlet","name":"Cafe Barrio","opening_hours":{"open_now":false},"photos":[{"height":3024,"html_attributions":["<a href=\"https://maps.google.com/maps/contrib/103676203280541744553\">El Pachuko</a>"],"photo_reference":"AXCi2Q6BIl8xQXo5get0VaPEjJPkwJtw3D3JHrzvNR9pcLbPCqpr5Y2wbOr8e8RIK2VLpAfooWHjPjqyq8ixXqUbp8fEfkxjZIJkpzEN2SYuiE6EFBaZfqqodqnJbGy650lDKVlrVNTheiQyJtBxqc2poDvDSTFwuGFSYvP6DZaYyvy5zdYB","width":4032}],"place_id":"ChIJi8WGt59MHRUR6Z4HuaMHmKM","plus_code":{"compound_code":"3Q4C+6W Tel Aviv-Yafo","global_code":"8G4P3Q4C+6W"},"rating":4.7,"reference":"ChIJi8WGt59MHRUR6Z4HuaMHmKM","scope":"GOOGLE","types":["cafe","restaurant","food","point_of_interest","store","establishment"],"user_ratings_total":176,"vicinity":"Ha'Aliya St 62, Tel Aviv-Yafo"},{"business_status":"OPERATIONAL","geometry":{"location":{"lat":32.0783681,"lng":34.7744406},"viewport":{"northeast":{"lat":32.07965442989271,"lng":34.77575652989272},"southwest":{"lat":32.07695477010727,"lng":34.77305687010728}}},"icon":"https://maps.gstatic.com/mapfiles/place_api/icons/v1/png_71/cafe-71.png","icon_background_color":"#FF9E67","icon_mask_base_uri":"https://maps.gstatic.com/mapfiles/place_api/icons/v2/cafe_pinlet","name":"Nahat Coffee","opening_hours":{"open_now":false},"photos":[{"height":1600,"html_attributions":["<a href=\"https://maps.google.com/maps/contrib/114320071958918846366\">קפה נחת</a>"],"photo_reference":"AXCi2Q47QAcFns6cuucXzLy5Qu4HBXTjHkf_WH_2cCWvQ7ciM1PZaV8ODHLCbgysK3CVQfRirRNpPSfbf-FuvKLNEZbYWxhd2UpwQF4S-iqIzdWdo0mMCFJatcDJuLnGKxFDSI8PkZDxbskdw1Z_xJihb8JRN6gdqNzoJ2BWsm8DUgwGNv0m","width":1113}],"place_id":"ChIJK5zFUYdLHRURzLpv8RjKSwc","plus_code":{"compound_code":"3QHF+8Q Tel Aviv-Yafo","global_code":"8G4P3QHF+8Q"},"price_level":2,"rating":4.4,"reference":"ChIJK5zFUYdLHRURzLpv8RjKSwc","scope":"GOOGLE","types":["cafe","food","point_of_interest","store","establishment"],"user_ratings_total":1925,"vicinity":"Dizengoff Square 1, Tel Aviv-Yafo"},{"business_status":"OPERATIONAL","geometry":{"location":{"lat":32.0791784,"lng":34.7837379},"viewport":{"northeast":{"lat":32.08057957989272,"lng":34.78505982989273},"southwest":{"lat":32.07787992010727,"lng":34.78236017010728}}},"icon":"https://maps.gstatic.com/mapfiles/place_api/icons/v1/png_71/cafe-71.png","icon_background_color":"#FF9E67","icon_mask_base_uri":"https://maps.gstatic.com/mapfiles/place_api/icons/v2/cafe_pinlet","name":"קפה יעל","opening_hours":{"open_now":false},"photos":[{"height":4032,"html_attributions":["<a href=\"https://maps.google.com/maps/contrib/101820539595962511909\">niv</a>"],"photo_reference":"AXCi2Q6mDmO5A9mAo3_C5S1v0G4tyP_5xIQqSdZl5uymB1EZLKMm9Y2EIcT3KQdEviY7KuVch3t6mvDw-BE5ICF_CHXZzQmBCy_SkXPZpSuVucEQ05FZEBLH3iS9ZLmDnz5Xw0cegEJQGJCn6VOKR0Iy3gMAWGXGSMIEM-WYcvgaQcwT-Q_u","width":3024}],"place_id":"ChIJM0aEQYVLHRURZnQV0cvWz_o","plus_code":{"compound_code":"3QHM+MG Tel Aviv-Yafo","global_code":"8G4P3QHM+MG"},"price_level":2,"rating":4.5,"reference":"ChIJM0aEQYVLHRURZnQV0cvWz_o","scope":"GOOGLE","types":["cafe","food","point_of_interest","store","establishment"],"user_ratings_total":637,"vicinity":"Zeitlin St 18, Tel Aviv-Yafo"},{"business_status":"OPERATIONAL","geometry":{"location":{"lat":32.0903894,"lng":34.7759208},"viewport":{"northeast":{"lat":32.09171487989272,"lng":34.77726527989272},"southwest":{"lat":32.08901522010728,"lng":34.77456562010728}}},"icon":"https://maps.gstatic.com/mapfiles/place_api/icons/v1/png_71/cafe-71.png","icon_background_color":"#FF9E67","icon_mask_base_uri":"https://maps.gstatic.com/mapfiles/place_api/icons/v2/cafe_pinlet","name":"Coffee Point","opening_hours":{"open_now":false},"photos":[{"height":4000,"html_attributions":["<a href=\"https://maps.google.com/maps/contrib/115416626398404524212\">Jonathan Oren</a>"],"photo_reference":"AXCi2Q7JZcGp5nmWrUy6uv9nmx--32bWrQWi8QHbEPX8i_T7kYLp0PrXaceLF2FB6YahA8PP7TwUgxFYilZxFbj6bze5eCKqO2X5XDLycF4k087T6FVj2dO5ix_LEACziXxmb7VhLA36tjqVRyfdl6AwiVMpdlPj3bIT2w9D584VAvMixP61","width":3000}],"place_id":"ChIJJ-YYNhVLHRURO9XK0tI12v0","plus_code":{"compound_code":"3QRG+59 Tel Aviv-Yafo","global_code":"8G4P3QRG+59"},"price_level":2,"rating":4.7,"reference":"ChIJJ-YYNhVLHRURO9XK0tI12v0","scope":"GOOGLE","types":["cafe","food","point_of_interest","establishment"],"user_ratings_total":132,"vicinity":"Basel St 1, Tel Aviv-Yafo"},{"business_status":"OPERATIONAL","geometry":{"location":{"lat":32.0081931,"lng":34.7993288},"viewport":{"northeast":{"lat":32.00960452989272,"lng":34.80060192989272},"southwest":{"lat":32.00690487010727,"lng":34.79790227010727}}},"icon":"https://maps.gstatic.com/mapfiles/place_api/icons/v1/png_71/cafe-71.png","icon_background_color":"#FF9E67","icon_mask_base_uri":"https://maps.gstatic.com/mapfiles/place_api/icons/v2/cafe_pinlet","name":"Landwer","opening_hours":{"open_now":true},"photos":[{"height":4608,"html_attributions":["<a href=\"https://maps.google.com/maps/contrib/107360732289795011382\">edo ohayon</a>"],"photo_reference":"AXCi2Q4lN1SHea-Z4x-TiBZUSulMSCXfSsvzLz2NUzGocdcUBssfvAy2G9vn_rs7gLQG9ENAlEdJMnp41da4M6OFVbdNdxPbSaWKjwALURz4p4MNyoGXdxnetsmhX1G_c-QJJc2SEcdOH1sp9R_oJ5BJ92YQ-etY48fDmqzntuMBCpengtTd","width":3456}],"place_id":"ChIJqdTmdcG0AhUReDNd1uCGd_I","plus_code":{"compound_code":"2Q5X+7P Holon","global_code":"8G4P2Q5X+7P"},"price_level":2,"rating":3.7,"reference":"ChIJqdTmdcG0AhUReDNd1uCGd_I","scope":"GOOGLE","types":["cafe","restaurant","food","point_of_interest","establishment"],"user_ratings_total":1457,"vicinity":"Harokmim St 26, Holon"},{"business_status":"OPERATIONAL","geometry":{"location":{"lat":32.0849522,"lng":34.7722955},"viewport":{"northeast":{"lat":32.08629532989272,"lng":34.77371707989272},"southwest":{"lat":32.08359567010727,"lng":34.77101742010728}}},"icon":"https://maps.gstatic.com/mapfiles/place_api/icons/v1/png_71/cafe-71.png","icon_background_color":"#FF9E67","icon_mask_base_uri":"https://maps.gstatic.com/mapfiles/place_api/icons/v2/cafe_pinlet","name":"Coffee Butke","opening_hours":{"open_now":false},"photos":[{"height":4032,"html_attributions":["<a href=\"https://maps.google.com/maps/contrib/108239961104438991918\">Mor</a>"],"photo_reference":"AXCi2Q4dNXDMIFgrFHHf-Q_qh_mVPzVRbR1DJ0dT5AEsrB2BCIKo6VM_u6ogYwae9wxj3aYvBO-LIM5LW40AUJpS_tHeepN_jTIxZLlo6gBHKTCM8-oTlk1VvdYWwJg4z-Pev3qvIr6UYYHaNR3sIfqh7J3QdKzTdzkBrt2gGjMu2yA2WBvc","width":3024}],"place_id":"ChIJ7xIglHdMHRURbWromCenC6Y","plus_code":{"compound_code":"3QMC+XW Tel Aviv-Yafo","global_code":"8G4P3QMC+XW"},"price_level":1,"rating":4.5,"reference":"ChIJ7xIglHdMHRURbWromCenC6Y","scope":"GOOGLE","types":["cafe","food","point_of_interest","store","establishment"],"user_ratings_total":358,"vicinity":"Sderot Ben Gurion 30, Tel Aviv-Yafo"},{"business_status":"OPERATIONAL","geometry":{"location":{"lat":32.0570793,"lng":34.767923},"viewport":{"northeast":{"lat":32.05845272989273,"lng":34.76927067989272},"southwest":{"lat":32.05575307010729,"lng":34.76657102010728}}},"icon":"https://maps.gstatic.com/mapfiles/place_api/icons/v1/png_71/cafe-71.png","icon_background_color":"#FF9E67","icon_mask_base_uri":"https://maps.gstatic.com/mapfiles/place_api/icons/v2/cafe_pinlet","name":"Frenkel Cafe","opening_hours":{"open_now":false},"photos":[{"height":3024,"html_attributions":["<a href=\"https://maps.google.com/maps/contrib/110161814791084595806\">A Google User</a>"],"photo_reference":"AXCi2Q7ere_Ri4bNuuR7IdgeEUl2H_mRFgDpRJI8ZDIwV7RiWQWzD689cuLEYaKGj_oBTECFwX5ODEj6Zw1plMtMtn25dswkgmXrx0QwnaNZMx3ndKN3_c_-THNhiOKg-B8bTS2CUklX51WDgW3nNg1Zrc7S_OlbAyj-8dI06GnNW-tv5Ojr","width":4032}],"place_id":"ChIJL_3ws9VNHRURLNHYWMgHqLY","plus_code":{"compound_code":"3Q49+R5 Tel Aviv-Yafo","global_code":"8G4P3Q49+R5"},"rating":4.7,"reference":"ChIJL_3ws9VNHRURLNHYWMgHqLY","scope":"GOOGLE","types":["cafe","food","point_of_interest","store","establishment"],"user_ratings_total":89,"vicinity":"HaRav Yizkhak Yedidya Frenkel 6, Tel Aviv-Yafo"},{"business_status":"OPERATIONAL","geometry":{"location":{"lat":32.0675196,"lng":34.7708444},"viewport":{"northeast":{"lat":32.06893227989271,"lng":34.77237242989273},"southwest":{"lat":32.06623262010727,"lng":34.76967277010728}}},"icon":"https://maps.gstatic.com/mapfiles/place_api/icons/v1/png_71/cafe-71.png","icon_background_color":"#FF9E67","icon_mask_base_uri":"https://maps.gstatic.com/mapfiles/place_api/icons/v2/cafe_pinlet","name":"cofizz","opening_hours":{"open_now":false},"photos":[{"height":4032,"html_attributions":["<a href=\"https://maps.google.com/maps/contrib/107358861443817880527\">Moti Ostrovsky</a>"],"photo_reference":"AXCi2Q6nO9Ryez-rk3_NbWhWh4kN4M9gKL2VNpVoPU9v_IJoJvUW0PwKhH3bUVyJrdUAq2lgPeaYbEdJdF5zmn0vgwMRvIh-KQ1rQfjaFKAIPCyFVdid2lrxFl4IKDhzPAbF3uZu0oWA3rxINWbsShsFiEo7oyt_kIJ6cOefmTrJDVPSnJw","width":3024}],"place_id":"ChIJpa6PsYNMHRURmcEbZRaJ5bM","plus_code":{"compound_code":"3Q9C+28 Tel Aviv-Yafo","global_code":"8G4P3Q9C+28"},"price_level":1,"rating":4.1,"reference":"ChIJpa6PsYNMHRURmcEbZRaJ5bM","scope":"GOOGLE","types":["cafe","food","point_of_interest","store","establishment"],"user_ratings_total":110,"vicinity":"Rambam St 26, Tel Aviv-Yafo"}],"status":"OK"}],[{"html_attributions":[],"next_page_token":"AXCi2Q7D_hYLfy6rH_QaU8qTVpObOQIYAtu_xGc3ULStmx7hpAJ73VHMca4_yFGAJVdY4cFo2E8DQ-hUpQS-X53S-0WMTM9-25KQO2zdGuuqj-sT-THKHtgtMnVQFt838stmDtNzcs2VLM0wPSJNCNgEZsiAcONIBlrM82sIC3nfDq37JjXnCt_kmOU7DF_cHOB6sqQqZcsMh9ObquwNlpRsLPW-7w8k4acTf__8WJr6UJ768fqzkPiR7u0sk4ylz8ox2-7BvezEalM1wUVgeoV0jCCHavnM6Mt3J6jdCBaf0hN7Rb0wyMgY_hQkjDpJr2cmLSn9_TgWszNqEBs170CYiStSrTFCVp5TA-OWMwwUuo_ctX9-zbqp3Qx3otE-Rg0jW2U7mP5lqq9vbO5x4XOqqooCrbvoh0-Y3-Wiz7EksrI2gUFWdHxKesJdMXmVFhg","results":[{"business_status":"OPERATIONAL","geometry":{"location":{"lat":32.0481264,"lng":34.7588792},"viewport":{"northeast":{"lat":32.04963747989272,"lng":34.76009067989272},"southwest":{"lat":32.04693782010727,"lng":34.75739102010728}}},"icon":"https://maps.gstatic.com/mapfiles/place_api/icons/v1/png_71/cafe-71.png","icon_background_color":"#FF9E67","icon_mask_base_uri":"https://maps.gstatic.com/mapfiles/place_api/icons/v2/cafe_pinlet","name":"Double Espresso","opening_hours":{"open_now":true},"photos":[{"height":3000,"html_attributions":["<a href=\"https://maps.google.com/maps/contrib/112639911253201236765\">תומר</a>"],"photo_reference":"AXCi2Q50qDv4IRFEcziNdR92X9aOGc6OZxbtcdvmDwm9JtPwxez3jXSgmSxFj2fKSf5zfWBViq-jpejE3m3yZr6G1lB18GZTZCTEgit9YVv3JZmngR7rBB3LUu7-10dlwPNiQ-wSdkioBQDtoWLQfsi8HpNPPARgljxJG3frRALALJjBny5W","width":4000}],"place_id":"ChIJyS4HPrpMHRURM8sZbasJjpg","plus_code":{"compound_code":"2QX5+7H Tel Aviv-Yafo","global_code":"8G4P2QX5+7H"},"price_level":2,"rating":4.4,"reference":"ChIJyS4HPrpMHRURM8sZbasJjpg","scope":"GOOGLE","types":["cafe","store","restaurant","food","point_of_interest","establishment"],"user_ratings_total":591,"vicinity":"Jerusalem Blvd 77, Tel Aviv-Yafo"},{"business_status":"OPERATIONAL","geometry":{"location":{"lat":32.0771645,"lng":34.7742624},"viewport":{"northeast":{"lat":32.07852662989273,"lng":34.77568307989272},"southwest":{"lat":32.07582697010729,"lng":34.77298342010727}}},"icon":"https://maps.gstatic.com/mapfiles/place_api/icons/v1/png_71/restaurant-71.png","icon_background_color":"#FF9E67","icon_mask_base_uri":"https://maps.gstatic.com/mapfiles/place_api/icons/v2/restaurant_pinlet","name":"Café CUCU","opening_hours":{"open_now":true},"photos":[{"height":3840,"html_attributions":["<a href=\"https://maps.google.com/maps/contrib/114637993748585729429\">A Google User</a>"],"photo_reference":"AXCi2Q53AR9-iUmnKivE5TIDAuxdlvYW3pT0igg1b5kFMCtV1ltITNzkX4C_mfMYqNqJVoDRuRo9711ne_XSZ9k04EFI-fV70N-oR34ApB5L6N1V_vZW9_WIa4ORlNSnBUEcRXn-oaYlx4RaWZuhK8BmDGK5GTI5rYUjY2PR5xYaUiDmoePb","width":5760}],"place_id":"ChIJP893XvFLHRUR1lsDiXEb3y8","plus_code":{"compound_code":"3QGF+VP Tel Aviv-Yafo","global_code":"8G4P3QGF+VP"},"price_level":3,"rating":4.6,"reference":"ChIJP893XvFLHRUR1lsDiXEb3y8","scope":"GOOGLE","types":["restaurant","cafe","food","point_of_interest","establishment"],"user_ratings_total":1643,"vicinity":"Dizengoff St 83, Tel Aviv-Yafo"},{"business_status":"OPERATIONAL","geometry":{"location":{"lat":32.0689892,"lng":34.768695},"viewport":{"northeast":{"lat":32.07037397989271,"lng":34.76999302989272},"southwest":{"lat":32.06767432010727,"lng":34.76729337010727}}},"icon":"https://maps.gstatic.com/mapfiles/place_api/icons/v1/png_71/cafe-71.png","icon_background_color":"#FF9E67","icon_mask_base_uri":"https://maps.gstatic.com/mapfiles/place_api/icons/v2/cafe_pinlet","name":"Café Yom Tov","opening_hours":{"open_now":true},"photos":[{"height":4048,"html_attributions":["<a href=\"https://maps.google.com/maps/contrib/116850311111067490783\">Yoav Gal</a>"],"photo_reference":"AXCi2Q7EPPXd3kCeWrkj-vyJPCvuSX8pNWwhKn2FqENxtVARCrzNVbByCTCLpWY1YKYQia_QYSIa785N_XZPQ7fSgrq9MZFeryMUMvXu2bGeahGvaRsqzKGbxZb5yEyozDP1Gqgurv56gC04kVRmqBlyJhZJe7xo3leMF3BsRA8qbIC-ym9L","width":3036}],"place_id":"ChIJ9RXn9YNMHRUR_yNpq7qaNnk","plus_code":{"compound_code":"3Q99+HF Tel Aviv-Yafo","global_code":"8G4P3Q99+HF"},"price_level":2,"rating":4.5,"reference":"ChIJ9RXn9YNMHRUR_yNpq7qaNnk","scope":"GOOGLE","types":["cafe","food","point_of_interest","establishment"],"user_ratings_total":1716,"vicinity":"Yom Tov St 30, Tel Aviv-Yafo"},{"business_status":"OPERATIONAL","geometry":{"location":{"lat":32.0583732,"lng":34.8189073},"viewport":{"northeast":{"lat":32.05973787989272,"lng":34.82024702989271},"southwest":{"lat":32.05703822010727,"lng":34.81754737010726}}},"icon":"https://maps.gstatic.com/mapfiles/place_api/icons/v1/png_71/cafe-71.png","icon_background_color":"#FF9E67","icon_mask_base_uri":"https://maps.gstatic.com/mapfiles/place_api/icons/v2/cafe_pinlet","name":"Shaked Café","opening_hours":{"open_now":true},"photos":[{"height":3024,"html_attributions":["<a href=\"https://maps.google.com/maps/contrib/117333494422740279047\">שי רחמני</a>"],"photo_reference":"AXCi2Q66Z2baZM_aQ9vwpiay67vRcKl5wfCM-LNnLDE1Q7aWZSjkMQweQJAATUi3wHl-8BR6cKvtJbZ_6kZrnqrLscLs55tq3tSUn2Zvds3tYp7ONNvP-U9n5-SA2oYlzjsNGtgr2coxGmpND2PSdQEH3S7j05NVaE8-1xujjFVXwrwRj0RT","width":4032}],"place_id":"ChIJA2zO5v9KHRURXMgVh6DoSq0","plus_code":{"compound_code":"3R59+8H Ramat Gan","global_code":"8G4P3R59+8H"},"price_level":2,"rating":4.1,"reference":"ChIJA2zO5v9KHRURXMgVh6DoSq0","scope":"GOOGLE","types":["cafe","store","food","point_of_interest","establishment"],"user_ratings_total":2154,"vicinity":"Aluf David St 40, Ramat Gan"},{"business_status":"OPERATIONAL","geometry":{"location":{"lat":32.0857237,"lng":34.7747447},"viewport":{"northeast":{"lat":32.08708242989272,"lng":34.77604637989273},"southwest":{"lat":32.08438277010728,"lng":34.77334672010728}}},"icon":"https://maps.gstatic.com/mapfiles/place_api/icons/v1/png_71/cafe-71.png","icon_background_color":"#FF9E67","icon_mask_base_uri":"https://maps.gstatic.com/mapfiles/place_api/icons/v2/cafe_pinlet","name":"Dizengoff Cafe","opening_hours":{"open_now":true},"photos":[{"height":3024,"html_attributions":["<a href=\"https://maps.google.com/maps/contrib/106185810895557288085\">A Google User</a>"],"photo_reference":"AXCi2Q6fekG3MdZ9zc2ufVEmlcLb-uIseWLDRr9z6NFp9MHcuvjzhSsoE4wMoAMIFghB2VuR5IaZozLUvcCkSEL6wJuuWlgEunqB08d7va_6EX8sF0ZgmsCUwBHPNSOJ_sxBGU1Z7Y-Cgj8ns_CHSkttwW5gRab4yI_QwwJU-PyYuwGbJZkY","width":4032}],"place_id":"ChIJm4T00olLHRURMIXHaAjtS34","plus_code":{"compound_code":"3QPF+7V Tel Aviv-Yafo","global_code":"8G4P3QPF+7V"},"price_level":2,"rating":4.3,"reference":"ChIJm4T00olLHRURMIXHaAjtS34","scope":"GOOGLE","types":["cafe","restaurant","food","point_of_interest","establishment"],"user_ratings_total":2279,"vicinity":"Dizengoff St 190, Tel Aviv-Yafo"},{"business_status":"OPERATIONAL","geometry":{"location":{"lat":32.0937248,"lng":34.7851271},"viewport":{"northeast":{"lat":32.09514372989271,"lng":34.78648507989272},"southwest":{"lat":32.09244407010727,"lng":34.78378542010728}}},"icon":"https://maps.gstatic.com/mapfiles/place_api/icons/v1/png_71/cafe-71.png","icon_background_color":"#FF9E67","icon_mask_base_uri":"https://maps.gstatic.com/mapfiles/place_api/icons/v2/cafe_pinlet","name":"Cafe Zorik","opening_hours":{"open_now":true},"photos":[{"height":2250,"html_attributions":["<a href=\"https://maps.google.com/maps/contrib/105048251549220598672\">Bernhard van Moll</a>"],"photo_reference":"AXCi2Q6hWObuZDOMRwpbhvzPJYlFr3vzWAWlmISm8EPGi8qC7fK1pSVc1GzZq06kcoAV-11h4WJFg35DJJrm6guet-N5s7u23QAnyV6FoKLEPpoYv4USLGXtiNAAjWSo4YgJSBNDuUZb9sxtdejDjbnmiqRZPg0ciG9HAXr56Yn6h7YkbGiL","width":4000}],"place_id":"ChIJGagCnO5LHRURqXNcVN8plNs","plus_code":{"compound_code":"3QVP+F3 Tel Aviv-Yafo","global_code":"8G4P3QVP+F3"},"price_level":2,"rating":4.3,"reference":"ChIJGagCnO5LHRURqXNcVN8plNs","scope":"GOOGLE","types":["cafe","restaurant","food","point_of_interest","establishment"],"user_ratings_total":3475,"vicinity":"Yehuda HaMakkabbi St 4א, Tel Aviv-Yafo"},{"business_status":"OPERATIONAL","geometry":{"location":{"lat":32.052641,"lng":34.756142},"viewport":{"northeast":{"lat":32.05387587989272,"lng":34.75755882989272},"southwest":{"lat":32.05117622010727,"lng":34.75485917010727}}},"icon":"https://maps.gstatic.com/mapfiles/place_api/icons/v1/png_71/restaurant-71.png","icon_background_color":"#FF9E67","icon_mask_base_uri":"https://maps.gstatic.com/mapfiles/place_api/icons/v2/restaurant_pinlet","name":"Cafe Puaa","opening_hours":{"open_now":true},"photos":[{"height":4624,"html_attributions":["<a href=\"https://maps.google.com/maps/contrib/100738988382606665421\">דינה מנתי קרן</a>"],"photo_reference":"AXCi2Q7guhzOzlRgm6ypbi2mFrkh26Ub21ytLxxSIXlzkXinGyXz68Vk0Aob0zruKXXZJnDYHKv6hRgdQlY38iE7biNYlP6xysFkky1Rev0bL7G7MWp8Bnmts0JsKOsEl-4QLPiMZp7pK9RA8xtBLPnqAnnAKuWx3oZqG5TNTYmnsrGp18C-","width":3472}],"place_id":"ChIJOeimRrlMHRURSmuTz3Skpqw","plus_code":{"compound_code":"3Q34+3F Tel Aviv-Yafo","global_code":"8G4P3Q34+3F"},"price_level":2,"rating":4.5,"reference":"ChIJOeimRrlMHRURSmuTz3Skpqw","scope":"GOOGLE","types":["restaurant","cafe","food","point_of_interest","establishment"],"user_ratings_total":5298,"vicinity":"Rabbi Yohanan St 8, Tel Aviv-Yafo"},{"business_status":"OPERATIONAL","geometry":{"location":{"lat":32.0525467,"lng":34.7521621},"viewport":{"northeast":{"lat":32.05392937989271,"lng":34.75353297989272},"southwest":{"lat":32.05122972010727,"lng":34.75083332010728}}},"icon":"https://maps.gstatic.com/mapfiles/place_api/icons/v1/png_71/cafe-71.png","icon_background_color":"#FF9E67","icon_mask_base_uri":"https://maps.gstatic.com/mapfiles/place_api/icons/v2/cafe_pinlet","name":"Fairouz Cafe","opening_hours":{"open_now":true},"photos":[{"height":3024,"html_attributions":["<a href=\"https://maps.google.com/maps/contrib/108668134539426735076\">Alex Idan</a>"],"photo_reference":"AXCi2Q6M6FkWkM-EmNXzuUwPfOLCzD1CuZ0piJ02S6Q_V8XQCr0ew2iQFlMLEX9hY617kF6kGS8vIZnMIWFfKysQkhShFrZb5s2oz-oHpdTMFVMXst_datW2RmKLoRVdMuLiR-DSdvuOPv6Gp2bHqnGVL9QXXLr5QuhMWvxAU3BCbAkeyklY","width":4032}],"place_id":"ChIJG1bzfLhMHRURLxGnBo20ho4","plus_code":{"compound_code":"3Q32+2V Tel Aviv-Yafo","global_code":"8G4P3Q32+2V"},"rating":4.4,"reference":"ChIJG1bzfLhMHRURLxGnBo20ho4","scope":"GOOGLE","types":["cafe","bakery","store","restaurant","food","point_of_interest","establishment"],"user_ratings_total":638,"vicinity":"1, Louis Pasteur St 5, Tel Aviv-Yafo"},{"business_status":"OPERATIONAL","geometry":{"location":{"lat":32.1133228,"lng":34.8244674},"viewport":{"northeast":{"lat":32.11467522989273,"lng":34.82578012989272},"southwest":{"lat":32.11197557010728,"lng":34.82308047010728}}},"icon":"https://maps.gstatic.com/mapfiles/place_api/icons/v1/png_71/cafe-71.png","icon_background_color":"#FF9E67","icon_mask_base_uri":"https://maps.gstatic.com/mapfiles/place_api/icons/v2/cafe_pinlet","name":"Café Zorik","opening_hours":{"open_now":true},"photos":[{"height":4000,"html_attributions":["<a href=\"https://maps.google.com/maps/contrib/103686368620424466880\">sara lichi</a>"],"photo_reference":"AXCi2Q7xyisIGaQ41pq2pPIN67RSL65jmvGAUlZIeFO8drKwj_D-uoOzp4hMbaBds6UFvVKhPeA1l0A1dCZg2im0eQydE14Zalv1ztofFw3yk96MKrEfdvQuQ0iBh1MOMrHahveHtvfenuCaPyJ9KI-T05UGBjWWsSMkKY6QuClSHgiGEXpf","width":3000}],"place_id":"ChIJ5wn4tdlJHRUR8yiIlcZ2frA","plus_code":{"compound_code":"4R7F+8R Tel Aviv-Yafo","global_code":"8G4P4R7F+8R"},"price_level":2,"rating":4.3,"reference":"ChIJ5wn4tdlJHRUR8yiIlcZ2frA","scope":"GOOGLE","types":["cafe","store","food","point_of_interest","establishment"],"user_ratings_total":1489,"vicinity":"Kehilat Saloniki St 11, Tel Aviv-Yafo"},{"business_status":"OPERATIONAL","geometry":{"location":{"lat":32.0085654,"lng":34.7816856},"viewport":{"northeast":{"lat":32.00993987989272,"lng":34.78342737989272},"southwest":{"lat":32.00724022010728,"lng":34.78072772010728}}},"icon":"https://maps.gstatic.com/mapfiles/place_api/icons/v1/png_71/cafe-71.png","icon_background_color":"#FF9E67","icon_mask_base_uri":"https://maps.gstatic.com/mapfiles/place_api/icons/v2/cafe_pinlet","name":"Cafe Gan Sipur","opening_hours":{"open_now":true},"photos":[{"height":4032,"html_attributions":["<a href=\"https://maps.google.com/maps/contrib/107835876040089838843\">אור ירושלמי</a>"],"photo_reference":"AXCi2Q751iwJ0MHN6rlWH5ZZDti6uAuaLNh-nw6BmOsxezxKSitd1K27TIgWGC8zj8RZSA11ViByUZg60-Ahw3QHwZopFdNXbTmoKqiv_PT3U4XfolmNVCt1y0KdCN-tthxI11zPudiHvYsO6esDGv732_Z3ANTGRV3vl4gWpw27UhXcXZuZ","width":3024}],"place_id":"ChIJVV7RApm0AhURJCh-6vKview","plus_code":{"compound_code":"2Q5J+CM Holon","global_code":"8G4P2Q5J+CM"},"price_level":2,"rating":4.4,"reference":"ChIJVV7RApm0AhURJCh-6vKview","scope":"GOOGLE","types":["cafe","restaurant","food","point_of_interest","establishment"],"user_ratings_total":5491,"vicinity":"Mota Gur St 15, Holon"},{"business_status":"OPERATIONAL","geometry":{"location":{"lat":32.0130495,"lng":34.7780354},"viewport":{"northeast":{"lat":32.01475702989271,"lng":34.77920177989272},"southwest":{"lat":32.01205737010727,"lng":34.77650212010727}}},"icon":"https://maps.gstatic.com/mapfiles/place_api/icons/v1/png_71/restaurant-71.png","icon_background_color":"#FF9E67","icon_mask_base_uri":"https://maps.gstatic.com/mapfiles/place_api/icons/v2/restaurant_pinlet","name":"Cafe LaLush","opening_hours":{"open_now":true},"photos":[{"height":3024,"html_attributions":["<a href=\"https://maps.google.com/maps/contrib/111128077723441388731\">Brian Ireley</a>"],"photo_reference":"AXCi2Q5jTUeroxszDBfmmpv1X9p6MJXY4sqHYbXE74FUGovPstPvjfG4pcQHJJkCD3yagov2PVez13mVaxFZfXbVIS0cwQiOlkJNuyAq8rUHRiCUWheWmMKHryUgxgjPcycK9eJEiG6-S-zUDXgNPZXypH-McjUr3mzMJN3y9FJ3jVBa4003","width":4032}],"place_id":"ChIJl1IfJlm1AhURHShbLx0o8wc","plus_code":{"compound_code":"2Q7H+66 Holon","global_code":"8G4P2Q7H+66"},"price_level":2,"rating":4.2,"reference":"ChIJl1IfJlm1AhURHShbLx0o8wc","scope":"GOOGLE","types":["restaurant","cafe","food","point_of_interest","establishment"],"user_ratings_total":1903,"vicinity":"Tzvi Tadmor 12, Holon"},{"business_status":"OPERATIONAL","geometry":{"location":{"lat":32.0719608,"lng":34.7737862},"viewport":{"northeast":{"lat":32.07335267989273,"lng":34.77515867989272},"southwest":{"lat":32.07065302010729,"lng":34.77245902010727}}},"icon":"https://maps.gstatic.com/mapfiles/place_api/icons/v1/png_71/cafe-71.png","icon_background_color":"#FF9E67","icon_mask_base_uri":"https://maps.gstatic.com/mapfiles/place_api/icons/v2/cafe_pinlet","name":"Just Coffee coffee","photos":[{"height":2448,"html_attributions":["<a href=\"https://maps.google.com/maps/contrib/112141645322189380619\">פשוט קפה coffee</a>"],"photo_reference":"AXCi2Q6SUr66vq-e-4veHr1KyDPZNQdh7V7-yGLIr4XpfhTffl40wWv2jjm59-Aj_RNvNanITWEJHLpxU8Qi64Lczda2llRiGkHSFl-fvZ2RjZ5UJ_fpBFjtj3IdcQ0IuToiCgzpHKrglvaGSdTH1AWYFxNUTP3ZiMnNERTR7YZW-Ejo-N_W","width":3264}],"place_id":"ChIJMShsIYBMHRURWNuvCfqcqmk","plus_code":{"compound_code":"3QCF+QG Tel Aviv-Yafo","global_code":"8G4P3QCF+QG"},"rating":4.9,"reference":"ChIJMShsIYBMHRURWNuvCfqcqmk","scope":"GOOGLE","types":["cafe","liquor_store","bakery","store","food","point_of_interest","establishment"],"user_ratings_total":12,"vicinity":"King George 26, HaHashmonaim St 2, Tel Aviv-Yafo"},{"business_status":"OPERATIONAL","geometry":{"location":{"lat":32.0611856,"lng":34.7757178},"viewport":{"northeast":{"lat":32.06258542989271,"lng":34.77704987989272},"southwest":{"lat":32.05988577010727,"lng":34.77435022010727}}},"icon":"https://maps.gstatic.com/mapfiles/place_api/icons/v1/png_71/cafe-71.png","icon_background_color":"#FF9E67","icon_mask_base_uri":"https://maps.gstatic.com/mapfiles/place_api/icons/v2/cafe_pinlet","name":"קפה החשמל","opening_hours":{"open_now":true},"photos":[{"height":3120,"html_attributions":["<a href=\"https://maps.google.com/maps/contrib/114355028903310522754\">Eyal Teutsch</a>"],"photo_reference":"AXCi2Q7aBhVkET3c7wcfvSyBH1HXhpsbfMOkTT6GpezRfwW0t_Bb44tu4BorVKZWtkNd7fZ4eZP92JvinqDmVp1k6FbKpO6x9x8lJtYsGQayGPnC2jluzF5Y1x4YCuu3_UGCc2We_Tw8EK4go3cAEEJEqHqBc6rEF4y7r7XlT-_GCr_HE2Mg","width":4160}],"place_id":"ChIJdQhU6WJLHRURlLwYEFYdT3s","plus_code":{"compound_code":"3Q6G+F7 Tel Aviv-Yafo","global_code":"8G4P3Q6G+F7"},"price_level":2,"rating":4.6,"reference":"ChIJdQhU6WJLHRURlLwYEFYdT3s","scope":"GOOGLE","types":["cafe","food","point_of_interest","establishment"],"user_ratings_total":319,"vicinity":"HaHashmal St 12, Tel Aviv-Yafo"},{"business_status":"OPERATIONAL","geometry":{"location":{"lat":32.0828764,"lng":34.7814952},"viewport":{"northeast":{"lat":32.08422737989272,"lng":34.78278402989272},"southwest":{"lat":32.08152772010727,"lng":34.78008437010728}}},"icon":"https://maps.gstatic.com/mapfiles/place_api/icons/v1/png_71/cafe-71.png","icon_background_color":"#FF9E67","icon_mask_base_uri":"https://maps.gstatic.com/mapfiles/place_api/icons/v2/cafe_pinlet","name":"Coffee & bakery","photos":[{"height":4000,"html_attributions":["<a href=\"https://maps.google.com/maps/contrib/106947531084432850194\">יוסי בכר</a>"],"photo_reference":"AXCi2Q7PE43KF3giYl-B5Rg0RwLvTp9XTpylJGEv1J8STeEkdc-EZq3M6QO6_DT4eeXEesF--PYWdy9rkGhXIoq_LuYTMVjjqqwWtLvRIL7rCHCjRnhiF9KElo_ZwOsbepa_pzpFQ0iRfYu1SeN1Epgh6SigGsNUY40SbKazBCtZ3yee1WI","width":1800}],"place_id":"ChIJl2KG7CVLHRUROU_rrB0mf7E","plus_code":{"compound_code":"3QMJ+5H Tel Aviv-Yafo","global_code":"8G4P3QMJ+5H"},"rating":3.4,"reference":"ChIJl2KG7CVLHRUROU_rrB0mf7E","scope":"GOOGLE","types":["cafe","store","food","point_of_interest","establishment"],"user_ratings_total":15,"vicinity":"Shlomo Ibn Gabirol St 92, Tel Aviv-Yafo"},{"business_status":"OPERATIONAL","geometry":{"location":{"lat":32.0773207,"lng":34.7815264},"viewport":{"northeast":{"lat":32.07866602989272,"lng":34.78282032989272},"southwest":{"lat":32.07596637010728,"lng":34.78012067010728}}},"icon":"https://maps.gstatic.com/mapfiles/place_api/icons/v1/png_71/cafe-71.png","icon_background_color":"#FF9E67","icon_mask_base_uri":"https://maps.gstatic.com/mapfiles/place_api/icons/v2/cafe_pinlet","name":"קפה שאבלי - בית קפה ובר יין","opening_hours":{"open_now":true},"photos":[{"height":4032,"html_attributions":["<a href=\"https://maps.google.com/maps/contrib/116187220778913470471\">A Google User</a>"],"photo_reference":"AXCi2Q43YSCi6RIg2rq6VsiIwN7x-Zx7i7-m5LGoxhR_0eLh8_rOlm4OJPf_ChsXjnz_01nBdpO9hzlIbJVWN5N7q72pfVMSfUNX5MApoWdbhdbdezfHmxEMOgnk290av5-6OWlZpkeDMkNqK3I33vXs3G9Q3nUTA3wazl0thJ2T6nGtDlB8","width":3024}],"place_id":"ChIJiSuN92JLHRUR45j2j8IWDJg","plus_code":{"compound_code":"3QGJ+WJ Tel Aviv-Yafo","global_code":"8G4P3QGJ+WJ"},"rating":4.9,"reference":"ChIJiSuN92JLHRUR45j2j8IWDJg","scope":"GOOGLE","types":["cafe","store","food","point_of_interest","establishment"],"user_ratings_total":35,"vicinity":"Shlomo Ibn Gabirol St 48, Tel Aviv-Yafo"},{"business_status":"OPERATIONAL","geometry":{"location":{"lat":32.0747592,"lng":34.8092923},"viewport":{"northeast":{"lat":32.07607427989272,"lng":34.81062222989273},"southwest":{"lat":32.07337462010728,"lng":34.80792257010728}}},"icon":"https://maps.gstatic.com/mapfiles/place_api/icons/v1/png_71/cafe-71.png","icon_background_color":"#FF9E67","icon_mask_base_uri":"https://maps.gstatic.com/mapfiles/place_api/icons/v2/cafe_pinlet","name":"Cafe Zelik","opening_hours":{"open_now":true},"photos":[{"height":4032,"html_attributions":["<a href=\"https://maps.google.com/maps/contrib/102252839818932731570\">A Google User</a>"],"photo_reference":"AXCi2Q40qhXJ6gv67zhY4ESwqFR06PH2uVaCWYme4PcVY--yXzIMBN4ATZOxSRg34CwwHavue9_M-5MYWPVir0VM8CP2f1EhTcxNExCpuamneiAXIcDcIPnEPQ1bm68iOxvzz76EGUDlraGCQDNoIkeedoO7BeDoBIBCJ8lQZn5yk-AYRCXU","width":3024}],"place_id":"ChIJTcKcV7BLHRUR3XYtuwQVXHY","plus_code":{"compound_code":"3RF5+WP Giv'atayim","global_code":"8G4P3RF5+WP"},"price_level":2,"rating":4,"reference":"ChIJTcKcV7BLHRUR3XYtuwQVXHY","scope":"GOOGLE","types":["cafe","store","restaurant","food","point_of_interest","establishment"],"user_ratings_total":3258,"vicinity":"Sheinkin St 3, Giv'atayim"},{"business_status":"OPERATIONAL","geometry":{"location":{"lat":32.0704091,"lng":34.7735561},"viewport":{"northeast":{"lat":32.07174852989272,"lng":34.77494897989272},"southwest":{"lat":32.06904887010727,"lng":34.77224932010728}}},"icon":"https://maps.gstatic.com/mapfiles/place_api/icons/v1/png_71/cafe-71.png","icon_background_color":"#FF9E67","icon_mask_base_uri":"https://maps.gstatic.com/mapfiles/place_api/icons/v2/cafe_pinlet","name":"WayCup Coffee TLV","opening_hours":{"open_now":false},"photos":[{"height":3024,"html_attributions":["<a href=\"https://maps.google.com/maps/contrib/101347695240737471426\">Omri Roth</a>"],"photo_reference":"AXCi2Q6Bj9B970HNdoLgLktg-Ivr7MBc39gp20aZsUxBucxd3gNGjJT3PPPNX74gHz-t_HtUr8YwpPFm3Coepfa-AMwOuSqDKWIpP6zT40KqQ4dfdJwdBIjlerbHDFVpU-pBarappTsr64M0DAgQJKKCOcA8wD0lMBOnVv8hSlo25pvmv0bn","width":4032}],"place_id":"ChIJNSOc0IFMHRUR5oIkAzB1CjY","plus_code":{"compound_code":"3QCF+5C Tel Aviv-Yafo","global_code":"8G4P3QCF+5C"},"price_level":2,"rating":4.8,"reference":"ChIJNSOc0IFMHRUR5oIkAzB1CjY","scope":"GOOGLE","types":["cafe","store","food","point_of_interest","establishment"],"user_ratings_total":834,"vicinity":"Yohanan HaSandlar St 23, Tel Aviv-Yafo"},{"business_status":"OPERATIONAL","geometry":{"location":{"lat":32.0494446,"lng":34.757403},"viewport":{"northeast":{"lat":32.05075812989273,"lng":34.75884602989272},"southwest":{"lat":32.04805847010728,"lng":34.75614637010728}}},"icon":"https://maps.gstatic.com/mapfiles/place_api/icons/v1/png_71/cafe-71.png","icon_background_color":"#FF9E67","icon_mask_base_uri":"https://maps.gstatic.com/mapfiles/place_api/icons/v2/cafe_pinlet","name":"Alma Cafe","opening_hours":{"open_now":true},"photos":[{"height":1067,"html_attributions":["<a href=\"https://maps.google.com/maps/contrib/117347513738602514802\">Alma Cafe</a>"],"photo_reference":"AXCi2Q4TIwY7qL598Y7uEBvN978BdvAXtGIhtv1tzrcBQuqb_5BizmQLNaR3aQ8KCSh0K5KPlVLaL4X89CWB-g8RXVTl-aWfmtU9Mb6w_-hJH8DGdpELV9P5-DOHHaKZ9Xy6No_FzYfoNSGG1s5rKVI_zzk5sxzJGnMT-wuXMXMvX662mKTi","width":1600}],"place_id":"ChIJnzcQH7pMHRURUttBI0MY0Ww","plus_code":{"compound_code":"2QX4+QX Tel Aviv-Yafo","global_code":"8G4P2QX4+QX"},"price_level":2,"rating":4.4,"reference":"ChIJnzcQH7pMHRURUttBI0MY0Ww","scope":"GOOGLE","types":["cafe","store","food","point_of_interest","establishment"],"user_ratings_total":1080,"vicinity":"Shivtei Israel St 14, Tel Aviv-Yafo"},{"business_status":"OPERATIONAL","geometry":{"location":{"lat":31.9860485,"lng":34.9132711},"viewport":{"northeast":{"lat":31.98722932989272,"lng":34.91469322989271},"southwest":{"lat":31.98452967010728,"lng":34.91199357010726}}},"icon":"https://maps.gstatic.com/mapfiles/place_api/icons/v1/png_71/cafe-71.png","icon_background_color":"#FF9E67","icon_mask_base_uri":"https://maps.gstatic.com/mapfiles/place_api/icons/v2/cafe_pinlet","name":"Landwer Coffee","opening_hours":{"open_now":true},"photos":[{"height":3024,"html_attributions":["<a href=\"https://maps.google.com/maps/contrib/106612668758853209848\">Igor Bendetski</a>"],"photo_reference":"AXCi2Q7T952rhQd_5XSoNTzV0B1xviNlunQpxpxoLGttc5_wXiZiK-5Ka6BQR0VIiIowz9FE3noNNpiVY0K7MtLhJi1tfUjIv_VRNZBWvEzJi8zPEU5wylC0X9znED7Av3vYaggHnnCav0l27S9fWFWM1AbLOzp-9oufplFucyTpUyC2FJ2p","width":4032}],"place_id":"ChIJC6PrFCzLAhURzpj3-VGhq-E","plus_code":{"compound_code":"XWP7+C7 Kfar Truman","global_code":"8G3PXWP7+C7"},"price_level":2,"rating":3.8,"reference":"ChIJC6PrFCzLAhURzpj3-VGhq-E","scope":"GOOGLE","types":["cafe","store","restaurant","food","point_of_interest","establishment"],"user_ratings_total":1909,"vicinity":"הנגב 1, קריית שדה התעופה"},{"business_status":"OPERATIONAL","geometry":{"location":{"lat":32.0876458,"lng":34.7749586},"viewport":{"northeast":{"lat":32.08897907989272,"lng":34.77639797989272},"southwest":{"lat":32.08627942010727,"lng":34.77369832010728}}},"icon":"https://maps.gstatic.com/mapfiles/place_api/icons/v1/png_71/cafe-71.png","icon_background_color":"#FF9E67","icon_mask_base_uri":"https://maps.gstatic.com/mapfiles/place_api/icons/v2/cafe_pinlet","name":"Origem Fresh Coffee","opening_hours":{"open_now":false},"photos":[{"height":3016,"html_attributions":["<a href=\"https://maps.google.com/maps/contrib/100461667203991542257\">Igor Olikh</a>"],"photo_reference":"AXCi2Q6GSXdCSrDI24wDw_bATP-LJyXnzcw99QtUBUnXF4qfb7SxlNL8wn-pUMD1O5Sd_KuzvG3NWN-iDrLa-lPqQg4vB-uBcBt-2BcdYnb-k-XXKiEIcPvtRJJrLnjL8ykBWqskVOlcGTW5b19ZFQhO9lO4_91j1W0HW5zcG4oSrzpQdHwc","width":4032}],"place_id":"ChIJ-QkE8YlLHRURlqqPg1da7W8","plus_code":{"compound_code":"3QQF+3X Tel Aviv-Yafo","global_code":"8G4P3QQF+3X"},"price_level":2,"rating":4.7,"reference":"ChIJ-QkE8YlLHRURlqqPg1da7W8","scope":"GOOGLE","types":["cafe","store","food","point_of_interest","establishment"],"user_ratings_total":1284,"vicinity":"Dizengoff St 203, Tel Aviv-Yafo"}],"status":"OK"},{"html_attributions":[],"next_page_token":"AXCi2Q7ySQ_l3PEv29UzKUTOQJrajCy2O6h6V5aQBLXiEqv1rN7d-r7rNL_WXzRkVeI26JOz89Oqud0mHnOWqgQkh5NKRxFmyprjbmhi_M7kP4hl_HDVtk6wtt0e8UWfoPIv9P3m4cjlVO0Hwte2_iLfAMxNexRFwtQYNttlHgsouAfYc2IB2vTsCXfLrt7mn3iFEEEaj03q3raY4lBgWBnG2cA3880l_5EK0r4n0tipy3VoXYdmxIV0E7J-QuekyHpfC923pO73dDCynXYEM1tvVqZfgaQKMG5il_YlPCwgi-CvY2R5rlmP72Ncv2L4uzrflKGR_NWhOiMuU9DSjaZNH1shxjXNogJt7wvCEpD4qp_1-HRSsHLS_HlXVQOHFKCcEjp2L5XxW-tfcQEx513l1oqcvgbmlA3dykmzY2QtitBTgjEQ34s2Cqh9nhzFUpvaNZqLK0Yaq-seTrBVGlN-b4aBWZ1w0f8oNNGMwX32f8mnu01Wpf6G6gUgk2v-sy7FOsyhX_PvzFzIgQQdoC9_R96ir6HY3-xP1_DOUdhhKYVp4tUGmOXEiZ6JuoOWfz_w5lYHaNLQs0t056BZR264O1fqu-03IsVryz71ThVbjUDLnlCw0SAiWsP-2EBwYZevmGVn9Z2D-imvR-eEgkUk","results":[{"business_status":"OPERATIONAL","geometry":{"location":{"lat":32.062911,"lng":34.77682679999999},"viewport":{"northeast":{"lat":32.06419217989271,"lng":34.77817617989272},"southwest":{"lat":32.06149252010727,"lng":34.77547652010728}}},"icon":"https://maps.gstatic.com/mapfiles/place_api/icons/v1/png_71/cafe-71.png","icon_background_color":"#FF9E67","icon_mask_base_uri":"https://maps.gstatic.com/mapfiles/place_api/icons/v2/cafe_pinlet","name":"WayCup Coffee","opening_hours":{"open_now":false},"photos":[{"height":4000,"html_attributions":["<a href=\"https://maps.google.com/maps/contrib/116687855686668068457\">Revital Hacham-Bar On</a>"],"photo_reference":"AXCi2Q7cNHpZBzE2k6Kj2FEeO9UEwhZ8_egBgwy1kn3sWH32EUci8RW6VGMGYvVe5gW67ImqqB9Fi-DX8n2CaP7QoJezzOWtYad2RweHRw8ZKKhobiQNJpJ6TUT7j00bIaOhzKwp62sQm0E1NLrI0BtXm5fFAIVCr9wH5nBKNXnYtye-8osP","width":3000}],"place_id":"ChIJf54Q1nxLHRURkUPjg2F4e78","plus_code":{"compound_code":"3Q7G+5P Tel Aviv-Yafo","global_code":"8G4P3Q7G+5P"},"price_level":2,"rating":4.7,"reference":"ChIJf54Q1nxLHRURkUPjg2F4e78","scope":"GOOGLE","types":["cafe","food","point_of_interest","store","establishment"],"user_ratings_total":703,"vicinity":"Mikve Israel St 17, Tel Aviv-Yafo"},{"business_status":"OPERATIONAL","geometry":{"location":{"lat":32.1122524,"lng":34.7950255},"viewport":{"northeast":{"lat":32.11373447989271,"lng":34.79628882989272},"southwest":{"lat":32.11103482010727,"lng":34.79358917010728}}},"icon":"https://maps.gstatic.com/mapfiles/place_api/icons/v1/png_71/restaurant-71.png","icon_background_color":"#FF9E67","icon_mask_base_uri":"https://maps.gstatic.com/mapfiles/place_api/icons/v2/restaurant_pinlet","name":"Grand Café Turkiz","opening_hours":{"open_now":true},"photos":[{"height":3024,"html_attributions":["<a href=\"https://maps.google.com/maps/contrib/105417266362205864514\">Helene Benalloun</a>"],"photo_reference":"AXCi2Q4hmUqEoCLxDUa1b83Xj_h-NeW_AprBwFHXhjiHY0CrM53OSMAUtE5xP6pVo7KFQkCk_3wXlXeB_L1Emar3IBhEnBjTavXY7WLdoRv4d_Y-OypPYgWMj8j9TE5sbXnyZL9RX1JWTobixuYmbWyQwwI9QiQ4iffnXWRR_pMRehZexFLB","width":4032}],"place_id":"ChIJ2Rb75V1JHRURFJ5JbdVh9iI","plus_code":{"compound_code":"4Q6W+W2 Tel Aviv-Yafo","global_code":"8G4P4Q6W+W2"},